{"address":"204 Rundle St","latitude":"-34.92236","name":"Cafe Michael 2","longitude":"138.607208"}
{"address":"129 North Tce","latitude":"-34.922","name":"Cafe One Two Nine","longitude":"138.59695"}
{"address":"282 Rundle St","latitude":"-34.922273","name":"Birdcage Cafe","longitude":"138.609981"}
{"address":"281 Flinders St","latitude":"-34.92716","name":"Xpresso On Flinders Street","longitude":"138.6109"}
{"address":"13 Bent St","latitude":"-34.92316","name":"Joy-Discovery Vegetarian Cafe","longitude":"138.60755"}{"address":"3\/ 25 Grenfell St","latitude":"-34.924713","name":"Turi","longitude":"138.600824"}{"address":"61 Grenfell St","latitude":"-34.92","name":"Un Caffe Bar","longitude":"138.6"}{"address":"Myer Centre, Rundle Mall,","latitude":"-34.921514","name":"Botz Cafe","longitude":"138.600812"}{"address":"224 Grenfell St","latitude":"-34.923831","name":"East End Yiros","longitude":"138.609445"}{"address":"36 Waymouth St","latitude":"-34.925635","name":"Stax","longitude":"138.598203"}{"address":"260 Rundle St","latitude":"-34.922308","name":"Sliders on Rundle","longitude":"138.609248"}{"address":"272 Rundle St","latitude":"-34.92247","name":"Scoozi Caffe Bar-Rundle Street","longitude":"138.60956"}{"address":"Shop 9\/20 James Pl","latitude":"-34.92","name":"Fair Espresso","longitude":"138.6"}{"address":"12 Waymouth St","latitude":"-34.92559","name":"Manna Caffe","longitude":"138.5991"}{"address":"61a Gouger St","latitude":"-34.9305","name":"Cork Wine Cafe","longitude":"138.597"}{"address":null,"latitude":null,"name":"Luxxe Cafe","longitude":null}{"address":"12 Franklin St","latitude":"-34.927212","name":"Public Caffe","longitude":"138.598454"}{"address":"13 Hindley St","latitude":"-34.92302","name":"Cafe Boulevard Restaurant","longitude":"138.59884"}{"address":"4 East Tce","latitude":"-34.92131","name":"Botanic Cafe","longitude":"138.61073"}{"address":"4\/ 400 King William St","latitude":"-34.933786","name":"Stax","longitude":"138.600713"}