[{"address":"Paxton Rd, Coober Pedy  5723","BRANCHADDRESS":"NULL","HOURS":"School terms: Mon - Fri 8.30am - 6pm, Sun 11am - 4pm School holidays: Mon - Fri 12 noon - 6pm, Sun 11am - 4pm","OBJECTID_1":"1","latitude":"-29.01351200","PHONE":"8672 4634","COUNCIL_NAME":"The Dc Of Coober Pedy","EMAIL":"library@cooberpedy.sa.edu.au","COMMENT_":"NULL","WEBSITE":"http:\/\/www.cooberpedy.sa.gov.au\/site\/page.cfm?u=123","longitude":"134.74969600","NAME":"Coober Pedy School Community Library"},
{"address":"Richardson Place, Roxby Downs  5725","BRANCHADDRESS":"NULL","HOURS":"School term: Mon - Fri 8.30am - 5pm, Sat 9.30am - 12 noon, School holidays: Mon - Fri 9am - 5pm, Sat 9.30am - 12 noon, After hours returns available","OBJECTID_1":"2","latitude":"-30.56192600","PHONE":"8671 0660","COUNCIL_NAME":"Municipal Council Of Roxby Downs","EMAIL":"roxbydowns.library@plain.sa.gov.au","COMMENT_":"NULL","WEBSITE":"NULL","longitude":"136.89655300","NAME":"Roxby Downs Community Library"},
{"address":"Arkaba St, Hawker  5434","BRANCHADDRESS":"NULL","HOURS":"School terms: Mon 8.30am - 5.00pm, Tues, Thurs 10.30am - 5pm, Wed, Fri 8.30am - 4.30pm, School holidays: Mon, Tues, 10.30am - 5pm, Wed, Thurs 1pm - 5pm, Fri CLOSED","OBJECTID_1":"3","latitude":"-31.88834500","PHONE":"8648 4184","COUNCIL_NAME":"The Flinders Ranges Council","EMAIL":"hawker.library@plain.sa.gov.au","COMMENT_":"NULL","WEBSITE":"http:\/\/www.libraries.sa.gov.au","longitude":"138.42520800","NAME":"Hawker School Community Library"},
{"address":"West Tce, Quorn  5433","BRANCHADDRESS":"NULL","HOURS":"School terms: Mon 8.30am - 4pm, Tues, Fri 8.30am - 6pm, Wed, Thurs 8.30am - 5pm, Sat 10am - 12 noon, School holidays: Tues 10am - 12 noon, 1pm - 6pm, Wed, Thurs 1pm - 5pm, Fri 1pm - 6pm, Sat 10am - 12 noon","OBJECTID_1":"4","latitude":"-32.34947700","PHONE":"8648 6705","COUNCIL_NAME":"The Flinders Ranges Council","EMAIL":"quorn.library@plain.sa.gov.au","COMMENT_":"NULL","WEBSITE":"http:\/\/www.libraries.sa.gov.au","longitude":"138.03235100","NAME":"Quorn School Community Library"},
{"address":"May Cres, Ceduna  5690","BRANCHADDRESS":"NULL","HOURS":"School terms: Mon, Wed, Fri 8.30am - 4pm, Tues 8.30am - 5.30pm, Thurs 8.30am - 4pm, 7pm - 9pm, Sat 9am - 11am School holidays: Mon, Wed, Thurs 9am - 4pm, Tues 9am - 5.30pm, Sat 9am - 11am Closed for lunch 12.30pm-1.30pm","OBJECTID_1":"5","latitude":"-32.13771900","PHONE":"8625 3270","COUNCIL_NAME":"The Dc Of Ceduna","EMAIL":"ceduna.library@plain.sa.gov.au","COMMENT_":"NULL","WEBSITE":"http:\/\/www.cedunaas.sa.edu.au\/library.htm","longitude":"133.67306600","NAME":"Ceduna School Community Library"},
{"address":"West Tce, Orroroo  5431","BRANCHADDRESS":"NULL","HOURS":"Schol terms: Mon 8.45am - 4pm, Tues, Wed, Fri 8.45am - 5pm, Thurs 8.45am - 7pm School holidays: Tues 11am - 5pm, Wed 1pm - 5pm, Thurs 1pm - 7pm, Fri 10.30am - 5pm","OBJECTID_1":"6","latitude":"-32.73047800","PHONE":"8658 1100","COUNCIL_NAME":"The Dc Of Orroroo Carrieton","EMAIL":"rosenblatt.jenny@plain.sa.gov.au","COMMENT_":"NULL","WEBSITE":"http:\/\/www.libraries.sa.gov.au","longitude":"138.61224900","NAME":"Orroroo School Community Library"},
{"address":"109 Wells St, Streaky Bay  5680","BRANCHADDRESS":"NULL","HOURS":"School terms: Mon, Wed, Fri 8.30am - 4pm, Tues, Thurs 8.30am - 6.30pmSchool holidays: Mon, Wed 9am - 12 noon, 1pm - 4pm, Tues 12 noon - 6.30pm, Thurs 4pm - 6.30pm, Fri 12 noon - 4pm","OBJECTID_1":"7","latitude":"-32.79731200","PHONE":"8626 1492","COUNCIL_NAME":"The Dc Of Streaky Bay","EMAIL":"longbottom.lorraine@plain.sa.gov.au","COMMENT_":"NULL","WEBSITE":"http:\/\/www.libraries.sa.gov.au","longitude":"134.20660200","NAME":"Streaky Bay School Community Library"},
{"address":"Booleroo Jamestown Rd, Appila  5480","BRANCHADDRESS":"NULL","HOURS":"NULL","OBJECTID_1":"8","latitude":"-33.05117300","PHONE":"8673 2305","COUNCIL_NAME":"The Dc Of Mount Remarkable","EMAIL":"flindersmobile.library@plain.sa.gov.au","COMMENT_":"NULL","WEBSITE":"http:\/\/www.flindersmobile.sa.gov.au","longitude":"138.42797000","NAME":"Flinders Mobile Library"},
{"address":"Stephens St, Booleroo Centre  5482","BRANCHADDRESS":"NULL","HOURS":"NULL","OBJECTID_1":"9","latitude":"-32.88169600","PHONE":"8665 2305","COUNCIL_NAME":"The Dc Of Mount Remarkable","EMAIL":"flindersmobile.library@plain.sa.gov.au","COMMENT_":"NULL","WEBSITE":"http:\/\/www.flindersmobile.sa.gov.au","longitude":"138.35035800","NAME":"Flinders Mobile Library"},
{"address":"Main North Rd, Melrose   5483","BRANCHADDRESS":"NULL","HOURS":"NULL","OBJECTID_1":"10","latitude":"-32.82473400","PHONE":"8666 2305","COUNCIL_NAME":"The Dc Of Mount Remarkable","EMAIL":"flindersmobile.library@plain.sa.gov.au","COMMENT_":"NULL","WEBSITE":"http:\/\/www.flindersmobile.sa.gov.au","longitude":"138.18790200","NAME":"Flinders Mobile Library"},
{"address":"Main North Rd, Murray Town  5481","BRANCHADDRESS":"NULL","HOURS":"NULL","OBJECTID_1":"11","latitude":"-32.93609500","PHONE":"8672 2305","COUNCIL_NAME":"The Dc Of Mount Remarkable","EMAIL":"flindersmobile.library@plain.sa.gov.au","COMMENT_":"NULL","WEBSITE":"http:\/\/www.flindersmobile.sa.gov.au","longitude":"138.24040900","NAME":"Flinders Mobile Library"},
{"address":"Esplanade, Port Germein   5495","BRANCHADDRESS":"NULL","HOURS":"NULL","OBJECTID_1":"12","latitude":"-33.02244600","PHONE":"8663 2305","COUNCIL_NAME":"The Dc Of Mount Remarkable","EMAIL":"flindersmobile.library@plain.sa.gov.au","COMMENT_":"NULL","WEBSITE":"http:\/\/www.flindersmobile.sa.gov.au","longitude":"137.99860200","NAME":"Flinders Mobile Library"},
{"address":"Main North Rd, Wilmington   5485","BRANCHADDRESS":"NULL","HOURS":"NULL","OBJECTID_1":"13","latitude":"-32.65251000","PHONE":"8667 2305","COUNCIL_NAME":"The Dc Of Mount Remarkable","EMAIL":"flindersmobile.library@plain.sa.gov.au","COMMENT_":"NULL","WEBSITE":"http:\/\/www.flindersmobile.sa.gov.au","longitude":"138.09958200","NAME":"Flinders Mobile Library"},
{"address":"Hillside Rd, Wirrabara   5481","BRANCHADDRESS":"NULL","HOURS":"NULL","OBJECTID_1":"14","latitude":"-33.03295200","PHONE":"8671 2305","COUNCIL_NAME":"The Dc Of Mount Remarkable","EMAIL":"flindersmobile.library@plain.sa.gov.au","COMMENT_":"NULL","WEBSITE":"http:\/\/www.flindersmobile.sa.gov.au","longitude":"138.26817500","NAME":"Flinders Mobile Library"},
{"address":"4 Mackay St, Port Augusta  5700","BRANCHADDRESS":"NULL","HOURS":"Mon, Wed, Fri 9am - 6pm, Tues, Thurs 9am - 8pm, Sat 10am - 1pm, Sun 2pm - 5pmAfter hours returns available","OBJECTID_1":"15","latitude":"-32.49088200","PHONE":"8641 9151","COUNCIL_NAME":"Port Augusta City Council","EMAIL":"palibrary@portaugusta.sa.gov.au","COMMENT_":"NULL","WEBSITE":"http:\/\/www.portaugusta.sa.gov.au","longitude":"137.76413900","NAME":"Port Augusta Public Library"},
{"address":"Queen St, Peterborough  5422","BRANCHADDRESS":"NULL","HOURS":"Mon - Fri 9am - 4pm, Sat 9am - 12 noon","OBJECTID_1":"16","latitude":"-32.97810400","PHONE":"8651 2523","COUNCIL_NAME":"The Dc Of Peterborough","EMAIL":"malycha.chris@plain.sa.gov.au","COMMENT_":"NULL","WEBSITE":"http:\/\/www.libraries.sa.gov.au","longitude":"138.83629900","NAME":"Peterborough Community Library"},
{"address":"Phillips Rd, Karcultaby  5654","BRANCHADDRESS":"NULL","HOURS":"Mon 9am - 6pm, Tues - Fri 9am - 3.30pm","OBJECTID_1":"17","latitude":"-32.85602000","PHONE":"8626 3077","COUNCIL_NAME":"Wudinna District Council","EMAIL":"library@karcultas.sa.edu.au","COMMENT_":"NULL","WEBSITE":"http:\/\/www.karcultas.sa.edu.au\/library.htm","longitude":"135.15548900","NAME":"Karcultaby School Community Library"},
{"address":"30 Medley Tce, Wudinna  5652","BRANCHADDRESS":"NULL","HOURS":"School terms: Mon 9am - 4pm, Tues, Thurs 9am - 5pm, Wed 9am - 6pm , Fri 9am - 4pm, School holidays: Tues 9am - 1pm, Wed 10am - 12 noon, 1pm - 6pm, Thurs 12 noon - 5pm, Fri 9am - 1pm","OBJECTID_1":"18","latitude":"-33.04526100","PHONE":"8680 2194","COUNCIL_NAME":"Wudinna District Council","EMAIL":"library@wudinnaas.sa.edu.au","COMMENT_":"NULL","WEBSITE":"http:\/\/www.wudinnaas.sa.edu.au\/Library","longitude":"135.46176900","NAME":"Wudinna School Community Library"},
{"address":"69 West Tce, Kimba  5641","BRANCHADDRESS":"NULL","HOURS":"School terms: Mon 9am - 3.30pm, Tues - Fri 9am - 5pm, School holidays: Tues - Fri 10.15am - 12.30pm, 1pm - 4.30pm","OBJECTID_1":"19","latitude":"-33.13553600","PHONE":"8627 2221","COUNCIL_NAME":"The Dc Of Kimba","EMAIL":"francis.therese@plain.sa.gov.au","COMMENT_":"NULL","WEBSITE":"http:\/\/www.libraries.sa.gov.au","longitude":"136.41940400","NAME":"Kimba School Community Library"},
{"address":"Ekblom St, Whyalla Norrie   5608","BRANCHADDRESS":"NULL","HOURS":"Mon - Wed 10am - 5pm Thurs 10am - 7pm Fri 10am - 5pm Sat 9am - 1pm Sun 1pm - 5pm ","OBJECTID_1":"20","latitude":"-33.02656900","PHONE":"8645 7891","COUNCIL_NAME":"The Corporation Of The City Of Whyalla","EMAIL":"library@whyalla.sa.gov.au","COMMENT_":"NULL","WEBSITE":"http:\/\/www.whyalla.sa.gov.au","longitude":"137.52369800","NAME":"Whyalla Library Service"},
{"address":"14 Fifth St, Gladstone  5473","BRANCHADDRESS":"NULL","HOURS":"NULL","OBJECTID_1":"21","latitude":"-33.26780000","PHONE":"8662 2305","COUNCIL_NAME":"Northern Areas Council","EMAIL":"flindersmobile.library@plain.sa.gov.au","COMMENT_":"NULL","WEBSITE":"http:\/\/www.flindersmobile.sa.gov.au","longitude":"138.35540000","NAME":"Flinders Mobile Library"},
{"address":"Main North Rd, Georgetown   5472","BRANCHADDRESS":"NULL","HOURS":"NULL","OBJECTID_1":"22","latitude":"-33.35996100","PHONE":"8668 2305","COUNCIL_NAME":"Northern Areas Council","EMAIL":"flindersmobile.library@plain.sa.gov.au","COMMENT_":"NULL","WEBSITE":"http:\/\/www.flindersmobile.sa.gov.au","longitude":"138.39258700","NAME":"Flinders Mobile Library"},
{"address":"Railway Tce, Gulnare  5471","BRANCHADDRESS":"NULL","HOURS":"NULL","OBJECTID_1":"23","latitude":"-33.46653300","PHONE":"8669 2305","COUNCIL_NAME":"Northern Areas Council","EMAIL":"flindersmobile.library@plain.sa.gov.au","COMMENT_":"NULL","WEBSITE":"http:\/\/www.flindersmobile.sa.gov.au","longitude":"138.44327000","NAME":"Flinders Mobile Library"},
{"address":"Civic Centre , Hughes St, Laura  5480","BRANCHADDRESS":"NULL","HOURS":"NULL","OBJECTID_1":"24","latitude":"-33.18579900","PHONE":"8662 2305","COUNCIL_NAME":"Northern Areas Council","EMAIL":"flindersmobile.library@plain.sa.gov.au","COMMENT_":"NULL","WEBSITE":"http:\/\/www.flindersmobile.sa.gov.au","longitude":"138.30046900","NAME":"Flinders Mobile Library"},
{"address":"Town Hall, Main North Rd, Spalding   5454","BRANCHADDRESS":"NULL","HOURS":"NULL","OBJECTID_1":"25","latitude":"-33.49929300","PHONE":"8670 2305","COUNCIL_NAME":"Northern Areas Council","EMAIL":"flindersmobile.library@plain.sa.gov.au","COMMENT_":"NULL","WEBSITE":"http:\/\/www.flindersmobile.sa.gov.au","longitude":"138.60718000","NAME":"Flinders Mobile Library"},
{"address":"Main North Rd, Yacka  5470","BRANCHADDRESS":"NULL","HOURS":"NULL","OBJECTID_1":"26","latitude":"-33.57080100","PHONE":"8676 2305","COUNCIL_NAME":"Northern Areas Council","EMAIL":"flindersmobile.library@plain.sa.gov.au","COMMENT_":"NULL","WEBSITE":"http:\/\/www.flindersmobile.sa.gov.au","longitude":"138.44449300","NAME":"Flinders Mobile Library"},
{"address":"Humphris Tce, Jamestown  5491","BRANCHADDRESS":"NULL","HOURS":"School terms: Mon - Wed, Fri 9am - 5pm, Thurs 9am - 6pm (7pm daylight saving), School holidays: Tues, Wed, Fri 9am - 5pm, Thurs 10am - 6pm (11am - 7pm daylight saving), Closed for lunch 1pm - 1.30pm","OBJECTID_1":"27","latitude":"-33.20436100","PHONE":"8664 2713","COUNCIL_NAME":"Northern Areas Council","EMAIL":"NULL","COMMENT_":"NULL","WEBSITE":"http:\/\/www.jamestnr12.sa.edu.au\/Library.htm","longitude":"138.61026100","NAME":"Jamestown School Community Library"},
{"address":"7 Bridge Tce, Burra  5417","BRANCHADDRESS":"NULL","HOURS":"School terms: Mon - Fri 8.30am - 6pm, School holidays: Mon - Fri 11am - 1pm, 2pm - 6pm, After hours returns available","OBJECTID_1":"28","latitude":"-33.68027700","PHONE":"8892 2038","COUNCIL_NAME":"The Regional Council Of Goyder","EMAIL":"burra.library@plain.sa.gov.au","COMMENT_":"Provides library services at:, Booborowie - next to Willis' office Mon - Fri 9am - 5pm, Hallett - Tues, Thurs 1.30pm - 4.30pm, Terowie - Tues 10am - 12 noon, Thurs 5pm - 6pm","WEBSITE":"http:\/\/www.libraries.sa.gov.au","longitude":"138.93869000","NAME":"Burra School Community Library"},
{"address":"2 Reserve Rd, Eudunda  5374","BRANCHADDRESS":"Robertstown Link Library - [address 7 Commercial St, Robertstown 5381] Tel. 8581 7069 Fax 8581 7098","HOURS":"NULL","OBJECTID_1":"29","latitude":"-34.18109800","PHONE":"8581 1587","COUNCIL_NAME":"The Regional Council Of Goyder","EMAIL":"sandy.smith@plain.sa.gov.au","COMMENT_":"NULL","WEBSITE":"http:\/\/www.libraries.sa.gov.au","longitude":"139.09244800","NAME":"Eudunda Robertstown School Community Library"},
{"address":"7 Commercial St, Robertstown SA 5381","BRANCHADDRESS":"NULL","HOURS":"NULL","OBJECTID_1":"30","latitude":"-33.98987400","PHONE":"(08) 8581 7209","COUNCIL_NAME":"The Regional Council Of Goyder","EMAIL":"pmatthew@eudundaas.sa.edu.au","COMMENT_":"NULL","WEBSITE":"http:\/\/www.goyder.sa.gov.au\/site\/page.cfm?u=100&c=473","longitude":"139.07958500","NAME":"Robertstown Link Library"},
{"address":"Bowman St, Crystal Brook  5523","BRANCHADDRESS":"NULL","HOURS":"Tues 9am - 12 noon, Wed, Fri 12 noon - 5pm","OBJECTID_1":"31","latitude":"-33.35180400","PHONE":"8636 2150","COUNCIL_NAME":"Port Pirie Regional Council","EMAIL":"library@pirie.sa.gov.au","COMMENT_":"NULL","WEBSITE":"http:\/\/www.pirie.sa.gov.au","longitude":"138.20731900","NAME":"Crystal Brook Public Library"},
{"address":"Town Hall, Sixth St, Koolunga   5464","BRANCHADDRESS":"NULL","HOURS":"NULL","OBJECTID_1":"32","latitude":"-33.58722800","PHONE":"8675 2305","COUNCIL_NAME":"Port Pirie Regional Council","EMAIL":"flindersmobile.library@plain.sa.gov.au","COMMENT_":"NULL","WEBSITE":"http:\/\/www.flindersmobile.sa.gov.au","longitude":"138.33313000","NAME":"Flinders Mobile Library"},
{"address":"Oak St, Napperby   5540","BRANCHADDRESS":"NULL","HOURS":"NULL","OBJECTID_1":"33","latitude":"-33.15280500","PHONE":"8664 2305","COUNCIL_NAME":"Port Pirie Regional Council","EMAIL":"flindersmobile.library@plain.sa.gov.au","COMMENT_":"NULL","WEBSITE":"http:\/\/www.flindersmobile.sa.gov.au","longitude":"138.11355100","NAME":"Flinders Mobile Library"},
{"address":"Ellis St, Redhill  5521","BRANCHADDRESS":"NULL","HOURS":"NULL","OBJECTID_1":"34","latitude":"-33.53749600","PHONE":"8674 2305","COUNCIL_NAME":"Port Pirie Regional Council","EMAIL":"flindersmobile.library@plain.sa.gov.au","COMMENT_":"NULL","WEBSITE":"http:\/\/www.flindersmobile.sa.gov.au","longitude":"138.22232000","NAME":"Flinders Mobile Library"},
{"address":"3 Wandearah Rd, Port Pirie  5540","BRANCHADDRESS":"NULL","HOURS":"Mon - Fri 9am - 6pm, Sat 9am - 1pm, Sun 1pm - 5pm","OBJECTID_1":"35","latitude":"-33.17654900","PHONE":"8632 1649","COUNCIL_NAME":"Port Pirie Regional Council","EMAIL":"library@pirie.sa.gov.au","COMMENT_":"NULL","WEBSITE":"http:\/\/www.pirie.sa.gov.au","longitude":"138.01013700","NAME":"Port Pirie Public Library"},
{"address":"West Tce, Lock  5633","BRANCHADDRESS":"Depots at: Elliston Community Information Centre, tel. 8687 9200 Port Kenny School, tel. 8625 5020 - for Port Kenny and Venus Bay residents","HOURS":"School terms: Mon, Wed 8.30am - 4pm, Tues 8.30am - 6pm, Thurs 8.30am - 4pm, 6pm - 9pm, Fri 8.30am - 5pm School holidays: Tues, Thurs 10am - 7pm, Fri 10am - 5pm","OBJECTID_1":"36","latitude":"-33.56786900","PHONE":"8689 1015","COUNCIL_NAME":"The Dc Of Elliston","EMAIL":"NULL","COMMENT_":"Free tea and coffee available in the Community Corner ","WEBSITE":"http:\/\/www.lockas.sa.edu.au","longitude":"135.75460100","NAME":"Lock School Community Library"},
{"address":"42 Story Rd, Cowell  5602","BRANCHADDRESS":"NULL","HOURS":"School terms: Mon 9am - 4pm, Tues - Thurs 9am - 5pm, Fri 9am - 4pm School holidays: Tues - Thurs 11am - 5pm, Fri 11am - 4pm","OBJECTID_1":"37","latitude":"-33.68435500","PHONE":"8629 2320","COUNCIL_NAME":"The Dc Of Franklin Harbour","EMAIL":"cowell.library@plain.sa.gov.au","COMMENT_":"NULL","WEBSITE":"http:\/\/www.cowellas.sa.edu.au","longitude":"136.91860000","NAME":"Cowell School Community Library"},
{"address":"Second St, Cleve  5640","BRANCHADDRESS":"NULL","HOURS":"School terms:, Mon 9am -12.5pm, 1.35pm - 3.10pm, Wed, Fri 9am - 5pm, Tues, Thurs 9am - 7pm, School holidays:, Tues, Thurs 11am - 2pm, 3pm - 7pm, Wed 10am - 1pm, 2pm - 5pm, Fri 9am - 1pm, 2pm - 5pm","OBJECTID_1":"38","latitude":"-33.70037300","PHONE":"8628 2104","COUNCIL_NAME":"The Dc Of Cleve","EMAIL":"honan.margaret@plain.sa.gov.au","COMMENT_":"NULL","WEBSITE":"http:\/\/www.libraries.sa.gov.au","longitude":"136.49408800","NAME":"Cleve School Community Library"},
{"address":"12 East Tce, Port Broughton  5522","BRANCHADDRESS":"Bute - Bute Council Office, 15 Railway Tce, Bute 5560 Tel.  8826 2011 Fax  8826 2173","HOURS":"Mon 8.30am - 5pm. Closed for lunch 12.45pm - 1.45pm","OBJECTID_1":"39","latitude":"-33.59766500","PHONE":"8635 2863","COUNCIL_NAME":"The Dc Of Barunga West","EMAIL":"lyn.brown@pbas.sa.edu.au","COMMENT_":"NULL","WEBSITE":"http:\/\/www.barungawest.sa.gov.au","longitude":"137.93384200","NAME":"Port Broughton School Community Library"},
{"address":"May Tce, Balaklava  5461","BRANCHADDRESS":"NULL","HOURS":"Mon - Fri 9am - 5pm, Thurs 9am - 9pm, Sat 9am - 12 noon","OBJECTID_1":"40","latitude":"-34.14960500","PHONE":"8862 1336","COUNCIL_NAME":"Wakefield Regional Council","EMAIL":"admin.bcl@balakhs.sa.edu.au","COMMENT_":"NULL","WEBSITE":"http:\/\/www.balakhs.sa.edu.au","longitude":"138.41484600","NAME":"Balaklava Community Library"},
{"address":"Glen Davidson Dr, Snowtown  5520","BRANCHADDRESS":"NULL","HOURS":"School terms: Mon 9am - 4pm, Tues - Fri 9am - 4.30pm, Sat 9am - 12 noon School holidays: Tues - Fri 9.30am - 3.45pm, Sat 9.30am - 12 noon","OBJECTID_1":"41","latitude":"-33.78549200","PHONE":"8865 2006","COUNCIL_NAME":"Wakefield Regional Council","EMAIL":"admin@snowtownas.sa.edu.au","COMMENT_":"NULL","WEBSITE":"http:\/\/www.snowtownas.sa.edu.au\/library","longitude":"138.22343100","NAME":"Snowtown School Community Library"},
{"address":"Gilbert Street Hamley Bridge 54601","BRANCHADDRESS":"<Null>","HOURS":"NULL","OBJECTID_1":"42","latitude":"-34.35662900","PHONE":"8528 2070","COUNCIL_NAME":"Wakefield Regional Council","EMAIL":" ","COMMENT_":"NULL","WEBSITE":"NULL","longitude":"138.68090500","NAME":"Hamley Bridge Library"},
{"address":"August & Wakefied Street Blyth 5462","BRANCHADDRESS":"NULL","HOURS":"NULL","OBJECTID_1":"43","latitude":"-33.84474700","PHONE":"8844 5195","COUNCIL_NAME":"Wakefield Regional Council","EMAIL":"info@blythps.sa.edu.au","COMMENT_":"NULL","WEBSITE":"NULL","longitude":"138.49032500","NAME":"Blyth Community Library"},
{"address":"Belling Street Brinkworth 5464","BRANCHADDRESS":"NULL","HOURS":"NULL","OBJECTID_1":"44","latitude":"-33.68860400","PHONE":"8846 2132","COUNCIL_NAME":"Wakefield Regional Council","EMAIL":"info@brinkwthps.sa.edu.au","COMMENT_":"NULL","WEBSITE":"NULL","longitude":"138.40431300","NAME":"Brinkworth Community Library"},
{"address":"33 Old North Rd, Clare  5453","BRANCHADDRESS":"Auburn - 6 St Vincent Street, Auburn 5451 Hours: Tues 3pm-4.30pm, Wed 11am-12 noon, Thurs 7pm-8pm, Fri 3pm-4.30pm Manoora - Manoora Institute Building, Manoora 5414 Hours: Fri 6pm-7.30pm Watervale - Main North Rd, Watervale 5452 Hours: Sat 9.30am-10.30am","HOURS":"Tues, Wed, Fri 10am - 6pm, Thurs 10am - 8pm, Sat 10am - 12 noon, Sun, 10am - 1pm","OBJECTID_1":"45","latitude":"-33.83328000","PHONE":"8842 3817","COUNCIL_NAME":"Clare And Gilbert Valleys Council","EMAIL":"clare.library@plain.sa.gov.au","COMMENT_":"NULL","WEBSITE":"http:\/\/www.claregilbertvalleys.sa.gov.au","longitude":"138.61313500","NAME":"Clare Library"},
{"address":"Oxford Tce, Riverton  5412","BRANCHADDRESS":"NULL","HOURS":"School terms: Tues 3pm - 6pm, Wed - Fri 10am - 6pm (closed for lunch 12.50pm - 1.40pm), Sat 10am - 12 noon School holidays: Tues - Fri 10am - 6pm (closed for lunch 1.30pm - 2pm)","OBJECTID_1":"46","latitude":"-34.15621200","PHONE":"8847 2414","COUNCIL_NAME":"Clare And Gilbert Valleys Council","EMAIL":"NULL","COMMENT_":"NULL","WEBSITE":"http:\/\/www.claregilbertvalleys.sa.gov.au","longitude":"138.75061900","NAME":"Riverton Community Library"},
{"address":"19 Belvidere Rd, Saddleworth  5413","BRANCHADDRESS":"NULL","HOURS":"Tues - Fri 8.30am - 12pm, 1pm - 5pm, Sat 9.30 - 12pm","OBJECTID_1":"47","latitude":"-34.08480300","PHONE":"8847 4096","COUNCIL_NAME":"Clare And Gilbert Valleys Council","EMAIL":"saddleworth.library@plain.sa.gov.au","COMMENT_":"Incorporates the Saddleworth Rural Transaction Centre","WEBSITE":"http:\/\/www.claregilbertvalleys.sa.gov.au","longitude":"138.78285000","NAME":"Saddleworth Library & Community Centre"},
{"address":"Lot 293, Main North Road, Watervale","BRANCHADDRESS":"<Null>","HOURS":"Hours: Sat 9.30am-10.30am","OBJECTID_1":"48","latitude":"-33.95882800","PHONE":"08 88474096","COUNCIL_NAME":"Clare And Gilbert Valleys Council","EMAIL":"saddleworth.library@plain.sa.gov.au","COMMENT_":"NULL","WEBSITE":"http:\/\/www.claregilbertvalleys.sa.gov.au\/site\/page.cfm?u=171","longitude":"138.64510100","NAME":"Watervale Library"},
{"address":"Manoora Institute Building, Barrier Highway, Manoora","BRANCHADDRESS":"<Null>","HOURS":"Hours: Fri 6pm-7.30pm","OBJECTID_1":"49","latitude":"-33.99995700","PHONE":"08 88474096","COUNCIL_NAME":"Clare And Gilbert Valleys Council","EMAIL":"saddleworth.library@plain.sa.gov.au","COMMENT_":"NULL","WEBSITE":"http:\/\/www.claregilbertvalleys.sa.gov.au\/site\/page.cfm?u=171","longitude":"138.81742400","NAME":"Manoora Library"},
{"address":"6 St Vincent St, Auburn","BRANCHADDRESS":"<Null>","HOURS":"Hours: Tues 3pm-4.30pm, Wed 11am-12 noon, Thurs 7pm-8pm, Fri 3pm-4.30pm","OBJECTID_1":"50","latitude":"-34.02645500","PHONE":"08 88492414","COUNCIL_NAME":"Clare And Gilbert Valleys Council","EMAIL":"saddleworth.library@plain.sa.gov.au","COMMENT_":"NULL","WEBSITE":"http:\/\/www.claregilbertvalleys.sa.gov.au\/site\/page.cfm?u=171","longitude":"138.68463900","NAME":"Auburn Library"},
{"address":"1a Doswell Tce, Kadina  5554","BRANCHADDRESS":"NULL","HOURS":"Mon - Wed, Fri 9am - 5.30pm, Thurs 9am - 8pm, Sat 9am - 12 noon Toy library: Thurs 5pm - 8pm, Fri 9am - 5.30pm, Sat 9am - 11.30am","OBJECTID_1":"51","latitude":"-33.96030400","PHONE":"8821 0444","COUNCIL_NAME":"Dc Of The Copper Coast","EMAIL":"kadina.library@plain.sa.gov.au","COMMENT_":"NULL","WEBSITE":"http:\/\/www.coppercoast.sa.gov.au","longitude":"137.71619600","NAME":"Kadina Community Library"},
{"address":"Blanche Tce, Moonta  5558","BRANCHADDRESS":"NULL","HOURS":"Tues, Wed, Fri 9am - 4pm, Thurs 9am - 6pm, Sun 1.30pm - 4pm","OBJECTID_1":"52","latitude":"-34.06923000","PHONE":"8825 1511","COUNCIL_NAME":"Dc Of The Copper Coast","EMAIL":"mlibrary@moontaas.sa.edu.au","COMMENT_":"NULL","WEBSITE":"http:\/\/www.coppercoast.sa.gov.au","longitude":"137.59248500","NAME":"Moonta Community Library"},
{"address":"John St, Wallaroo  5556","BRANCHADDRESS":"NULL","HOURS":"Tues - Fri 9am - 5pm","OBJECTID_1":"53","latitude":"-33.93112500","PHONE":"8823 2924","COUNCIL_NAME":"Dc Of The Copper Coast","EMAIL":"NULL","COMMENT_":"NULL","WEBSITE":"http:\/\/www.coppercoast.sa.gov.au","longitude":"137.62524200","NAME":"Wallaroo Library"},
{"address":"1 Main St, Cambrai  5353","BRANCHADDRESS":"NULL","HOURS":"School term: Mon, Wed, Fri 9am - 3.30pm, Tues 9am - 3.30pm, 6.30pm - 8.30pm, Thurs 9am - 4.30pm School holidays: Tues 4.30pm - 8.30pm, Wed - Fri 9.30am - 4pm (closed 1pm - 1.30pm)","OBJECTID_1":"54","latitude":"-34.65681200","PHONE":"8564 5146","COUNCIL_NAME":"Mid Murray Council","EMAIL":"library@cambraias.sa.edu.au","COMMENT_":"NULL","WEBSITE":"http:\/\/www.libraries.sa.gov.au","longitude":"139.28090000","NAME":"Cambrai School Community Library"},
{"address":"Walker Ave, Mannum  5238","BRANCHADDRESS":"NULL","HOURS":"School terms: Mon, Thurs, Fri 9am - 4pm, Tues 9am - 3.30pm, Wed 9am - 8pm, Sat 9.30am - 12 noon, School holidays: Mon - Fri 10am - 2pm, Wed 10am - 2pm, 4pm - 8pm, Sat 10am - 12 noon","OBJECTID_1":"55","latitude":"-34.91271800","PHONE":"8569 2005","COUNCIL_NAME":"Mid Murray Council","EMAIL":"library@mcc.sa.edu.au","COMMENT_":"NULL","WEBSITE":"http:\/\/www.mcc.sa.edu.au","longitude":"139.30468200","NAME":"Mannum School Community Library"},
{"address":"Ninth St, Morgan  5320","BRANCHADDRESS":"NULL","HOURS":"Mon 2.30pm - 5.30pm, Wed 1pm - 5pm, Fri 9am - 12 noon","OBJECTID_1":"56","latitude":"-34.03289800","PHONE":"8540 2290","COUNCIL_NAME":"Mid Murray Council","EMAIL":"morlib@mid-murray.sa.gov.au","COMMENT_":"NULL","WEBSITE":"http:\/\/www.loxtonwaikerie.sa.gov.au","longitude":"139.66874000","NAME":"Morgan Public Library"},
{"address":"Showground Rd, Swan Reach  5354","BRANCHADDRESS":"NULL","HOURS":"School terms: Mon, Thurs, Fri 9am - 4pm, Tues, Wed 9am - 5pm School holidays: Mon, Tues, Thurs, Fri 11am - 4pm","OBJECTID_1":"57","latitude":"-34.57253100","PHONE":"8570 2053","COUNCIL_NAME":"Mid Murray Council","EMAIL":"NULL","COMMENT_":"NULL","WEBSITE":"http:\/\/www.swanrchas.sa.edu.au","longitude":"139.60192600","NAME":"Swan Reach School Community Library"},
{"address":"28 West Tce, Tumby Bay  5605","BRANCHADDRESS":"NULL","HOURS":"School terms: Mon, Thurs 9am - 4pm, Tues 9am - 4pm, 7pm - 8pm, Wed, Fri 9am - 6pm, Sat 10am - 12 noon, School holidays: Tues 10am - 3.30pm, 7pm - 8pm, Wed 10am - 5.30pm, Thurs, Fri 9am - 4pm, Sat 10am - 12 noon","OBJECTID_1":"58","latitude":"-34.37649600","PHONE":"8688 2471","COUNCIL_NAME":"The Dc Of Tumby Bay","EMAIL":"NULL","COMMENT_":"NULL","WEBSITE":"http:\/\/www.libraries.sa.gov.au","longitude":"136.10048300","NAME":"Tumby Bay School Community Library"},
{"address":"McFarlane St, Cummins  5631","BRANCHADDRESS":"NULL","HOURS":"School terms: Mon 9am - 4pm, Tues, Thurs 9am - 6pm, Wed, Fri 9am - 5pm, Sat 10am - 12 noon School holidays: Tues, Thurs 9am - 1.30pm, 2.30pm - 6pm, Wed 12.30pm - 5pm, Fri 9am - 1.30pm, 2.30pm - 5pm, Sat 10am - 12 noon Coffin Bay depot: Sat 10am - 12 noon","OBJECTID_1":"59","latitude":"-34.26444900","PHONE":"8676 2476","COUNCIL_NAME":"The Dc Of Lower Eyre Peninsula","EMAIL":"cummins.library@plain.sa.gov.au","COMMENT_":"NULL","WEBSITE":"http:\/\/www.cumminsas.sa.edu.au","longitude":"135.72353700","NAME":"Cummins School Community Library"},
{"address":"East Tce, Loxton  5333","BRANCHADDRESS":"NULL","HOURS":"Tues, Wed 10am - 6pm, Thurs 10am - 8pm, Fri 10am - 5pm, Sat 9am - 12 noon","OBJECTID_1":"60","latitude":"-34.45006200","PHONE":"8584 8051","COUNCIL_NAME":"The Dc Of Loxton Waikerie","EMAIL":"libmanagerlox@loxtonwaikerie.sa.gov.au","COMMENT_":"NULL","WEBSITE":"http:\/\/www.loxtonwaikerie.sa.gov.au","longitude":"140.56916100","NAME":"Loxton Public Library"},
{"address":"Strangman Rd, Waikerie  5330","BRANCHADDRESS":"NULL","HOURS":"Tues, Thurs 10.30am - 8pm, Wed, Fri 10.30am - 6pm, Sat 9.30am - 12 noon","OBJECTID_1":"61","latitude":"-34.18656500","PHONE":"8541 0720","COUNCIL_NAME":"The Dc Of Loxton Waikerie","EMAIL":"libmanagerwaik@loxtonwaikerie.sa.gov.au","COMMENT_":"NULL","WEBSITE":"http:\/\/www.loxtonwaikerie.sa.gov.au","longitude":"139.98599900","NAME":"Waikerie Public Library"},
{"address":"James Ave, Renmark  5341","BRANCHADDRESS":"NULL","HOURS":"Mon closed, Tues, Thurs, Fri 9.30am - 5.30pm, Wed 9.30am - 8pm, Sat 9.30am - 12 noon","OBJECTID_1":"62","latitude":"-34.16764900","PHONE":"8586 5544","COUNCIL_NAME":"Renmark Paringa Council","EMAIL":"lc24mah@plain.sa.gov.au","COMMENT_":"NULL","WEBSITE":"http:\/\/www.renmarkparinga.sa.gov.au","longitude":"140.75186100","NAME":"Renmark Paringa Public Library"},
{"address":"14 Second St, Ardrossan  5571","BRANCHADDRESS":"NULL","HOURS":"School terms: Mon, Tues, Thurs 9am - 3.30pm, Wed, Fri 9am - 6pm, Sat 10am - 1pm School holidays: Tues, Thurs 9am - 12.30pm, 1pm - 3.30pm, Wed, Fri 10.30am - 1pm, 2pm - 6pm, Sat 10am - 1pm","OBJECTID_1":"63","latitude":"-34.42385400","PHONE":"8837 4134","COUNCIL_NAME":"The Dc Of Yorke Peninsula","EMAIL":"NULL","COMMENT_":"NULL","WEBSITE":"http:\/\/www.libraries.sa.gov.au","longitude":"137.91624200","NAME":"Ardrossan School Community Library"},
{"address":"Junction Rd, Maitland  5573","BRANCHADDRESS":"NULL","HOURS":"School terms: Mon, Wed, Fri 8.30am - 4.30pm, Tues, Thurs 8.30am - 7pm School holidays: Mon, Wed, Fri 10am - 2pm, Tues Thurs 3pm - 7pm","OBJECTID_1":"64","latitude":"-34.36820000","PHONE":"8832 2805","COUNCIL_NAME":"The Dc Of Yorke Peninsula","EMAIL":"NULL","COMMENT_":"NULL","WEBSITE":"http:\/\/www.libraries.sa.gov.au","longitude":"137.67389500","NAME":"Maitland School Community Library"},
{"address":"2 North Tce, Minlaton  5575","BRANCHADDRESS":"Curramulka Depot in the Curramulka Institute Port Vincent Depot in the Port Vincent Institute","HOURS":"School terms: Mon, Wed, Fri 8.30am - 4.30pm, Tues, Thurs 8.30am - 3.30pm, 5pm - 7pm, School holidays: Tues, Thurs 10am - 12.30pm, 1.30pm - 4pm, 5pm - 7pm, Wed, Fri 10am - 12.30pm, 1.30pm - 4pm","OBJECTID_1":"65","latitude":"-34.76594300","PHONE":"8853 2339","COUNCIL_NAME":"The Dc Of Yorke Peninsula","EMAIL":"NULL","COMMENT_":"NULL","WEBSITE":"http:\/\/www.minlatonds.sa.edu.au\/library","longitude":"137.59333200","NAME":"Minlaton School Community Library"},
{"address":"Stansbury Rd, Yorketown  5576","BRANCHADDRESS":"NULL","HOURS":"School terms: Mon, Wed, Fri 8.45am - 5pm, Tues, Thurs 8.45am - 5pm, 6.30 - 8.30pm School holidays: Mon 2pm - 5pm, Tues 2pm - 5pm, 6.30 - 8.30pm, Wed 10.30pm - 1pm, 2pm - 5pm, Thurs 10.30pm - 1pm, 2pm - 5pm, 6.30 - 8.30pm, Fri 10.30pm - 1pm, 2pm - 5pm","OBJECTID_1":"66","latitude":"-35.01700300","PHONE":"8852 1647","COUNCIL_NAME":"The Dc Of Yorke Peninsula","EMAIL":"NULL","COMMENT_":"NULL","WEBSITE":"http:\/\/www.libraries.sa.gov.au","longitude":"137.61535000","NAME":"Yorketown Area School Community Library"},
{"address":"Player St, Warooka SA","BRANCHADDRESS":"NULL","HOURS":"NULL","OBJECTID_1":"67","latitude":"-34.99056300","PHONE":"NULL","COUNCIL_NAME":"The Dc Of Yorke Peninsula","EMAIL":" ","COMMENT_":"NULL","WEBSITE":"http:\/\/www.yorke.sa.gov.au\/content\/view\/160\/253\/","longitude":"137.40196900","NAME":"Warooka Library Depot"},
{"address":"Stansbury Institute, Weaver St, Stansbury SA","BRANCHADDRESS":"NULL","HOURS":"NULL","OBJECTID_1":"68","latitude":"-34.91078200","PHONE":"NULL","COUNCIL_NAME":"The Dc Of Yorke Peninsula","EMAIL":" ","COMMENT_":"NULL","WEBSITE":"http:\/\/www.yorke.sa.gov.au\/content\/view\/159\/253\/","longitude":"137.79687900","NAME":"Stansbury Library Depot"},
{"address":"19 Marine Parade, Port Vincent, SA","BRANCHADDRESS":"NULL","HOURS":"NULL","OBJECTID_1":"69","latitude":"-34.77790300","PHONE":"NULL","COUNCIL_NAME":"The Dc Of Yorke Peninsula","EMAIL":" ","COMMENT_":"NULL","WEBSITE":"http:\/\/www.yorke.sa.gov.au\/content\/view\/158\/253\/","longitude":"137.86206500","NAME":"Port Vincent Library Depot"},
{"address":"Main St, Arthurton SA","BRANCHADDRESS":"NULL","HOURS":"NULL","OBJECTID_1":"70","latitude":"-34.25947500","PHONE":"NULL","COUNCIL_NAME":"The Dc Of Yorke Peninsula","EMAIL":" ","COMMENT_":"NULL","WEBSITE":"http:\/\/www.yorke.sa.gov.au\/content\/view\/462\/253\/","longitude":"137.75675500","NAME":"Arthurton Library Depot"},
{"address":"Main St, Port Victoria SA","BRANCHADDRESS":"NULL","HOURS":"NULL","OBJECTID_1":"71","latitude":"-34.49749800","PHONE":"NULL","COUNCIL_NAME":"The Dc Of Yorke Peninsula","EMAIL":" ","COMMENT_":"NULL","WEBSITE":"http:\/\/www.yorke.sa.gov.au\/content\/view\/157\/253\/","longitude":"137.48451100","NAME":"Port Victoria Library Depot"},
{"address":"Slow St, Marion Bay SA","BRANCHADDRESS":"NULL","HOURS":"NULL","OBJECTID_1":"72","latitude":"-35.23769900","PHONE":"NULL","COUNCIL_NAME":"The Dc Of Yorke Peninsula","EMAIL":" ","COMMENT_":"NULL","WEBSITE":"http:\/\/www.yorke.sa.gov.au\/content\/view\/155\/253\/","longitude":"136.98073800","NAME":"Marion Bay Library Depot"},
{"address":"30 Blanche St, Edithburgh, SA","BRANCHADDRESS":"NULL","HOURS":"NULL","OBJECTID_1":"73","latitude":"-35.08593400","PHONE":"NULL","COUNCIL_NAME":"The Dc Of Yorke Peninsula","EMAIL":" ","COMMENT_":"NULL","WEBSITE":"http:\/\/www.yorke.sa.gov.au\/content\/view\/153\/253\/","longitude":"137.74552200","NAME":"Edithburgh Library Depot"},
{"address":"6 High St, Curramulka, SA","BRANCHADDRESS":"NULL","HOURS":"NULL","OBJECTID_1":"74","latitude":"-34.69718500","PHONE":"NULL","COUNCIL_NAME":"The Dc Of Yorke Peninsula","EMAIL":" ","COMMENT_":"NULL","WEBSITE":"http:\/\/www.yorke.sa.gov.au\/content\/view\/152\/253\/","longitude":"137.71159900","NAME":"Carramulka Library Depot"},
{"address":"Cnr Liddiards and Rockleigh Rd, Corny Point, SA","BRANCHADDRESS":"NULL","HOURS":"NULL","OBJECTID_1":"75","latitude":"-34.92608300","PHONE":"NULL","COUNCIL_NAME":"The Dc Of Yorke Peninsula","EMAIL":" ","COMMENT_":"NULL","WEBSITE":"http:\/\/www.yorke.sa.gov.au\/content\/view\/151\/253\/","longitude":"137.08335500","NAME":"Corny Point Library Depot"},
{"address":"4c Barwell Ave, Barmera  5345","BRANCHADDRESS":"NULL","HOURS":"Mon 9.30am - 1pm, Tues, Wed, Fri 9.30am - 5.30pm, Thurs 9.30am - 6pm, Sat 9am - 12 noon, After hours returns available","OBJECTID_1":"76","latitude":"-34.25207200","PHONE":"8588 2872","COUNCIL_NAME":"The Berri Barmera Council","EMAIL":"bbc@berribarmera.sa.gov.au","COMMENT_":"NULL","WEBSITE":"http:\/\/www.berribarmera.sa.gov.au","longitude":"140.46445600","NAME":"Barmera Public Library"},
{"address":"Kay Ave, Berri  5343","BRANCHADDRESS":"NULL","HOURS":"School terms: Mon - Wed, Fri 8am - 6pm, Thurs 8am - 8pm, Sat 9am - 12 noon, School holidays: Mon, Wed, Fri 9am - 5pm, Tues 9am - 6pm, Thurs 9am - 8pm, Sat 9am - 12 noon, After hours returns available","OBJECTID_1":"77","latitude":"-34.27967000","PHONE":"8595 2666","COUNCIL_NAME":"The Berri Barmera Council","EMAIL":"berri.library@tafesa.edu.au","COMMENT_":"NULL","WEBSITE":"http:\/\/www.berrilibrary.info","longitude":"140.60817400","NAME":"Berri Library & Information Centre"},
{"address":"Hanson St, Freeling  5372","BRANCHADDRESS":"NULL","HOURS":"Mon 3pm - 8pm, Wed 2pm - 6pm, Thurs 2pm - 5pm, Fri 10am - 12 noon","OBJECTID_1":"78","latitude":"-34.45424000","PHONE":"8525 3240","COUNCIL_NAME":"Light Regional Council","EMAIL":"library@light.sa.gov.au","COMMENT_":"NULL","WEBSITE":"http:\/\/www.light.sa.gov.au","longitude":"138.81023400","NAME":"Light Regional Public Library Service - Freeling"},
{"address":"Kapunda Rd, Greenock  5360","BRANCHADDRESS":"NULL","HOURS":"Tues 7pm - 8pm, Thurs 9.30am - 10.30am, Fri 3pm - 5pm","OBJECTID_1":"79","latitude":"-34.45724900","PHONE":"8562 8308","COUNCIL_NAME":"Light Regional Council","EMAIL":"library@light.sa.gov.au","COMMENT_":"NULL","WEBSITE":"http:\/\/www.light.sa.gov.au","longitude":"138.92700900","NAME":"Light Regional Public Library Service - Greenock"},
{"address":"51 - 53 Main St, Kapunda  5373","BRANCHADDRESS":"NULL","HOURS":"Mon - Wed, Fri 9am - 5pm, Thurs 9am - 8pm, Sat, Sun, public holidays 10am - 4pm, Closed Good Friday & Christmas Day, After hours returns available","OBJECTID_1":"80","latitude":"-34.34071100","PHONE":"8525 3290","COUNCIL_NAME":"Light Regional Council","EMAIL":"library@light.sa.gov.au","COMMENT_":"Co-located with [!4ROG13G5!11], Interpretive Display, Community Art Gallery and Community Craft Shop.","WEBSITE":"http:\/\/www.light.sa.gov.au","longitude":"138.91509000","NAME":"Light Regional Public Library Service - Kapunda"},
{"address":"45-47 Annie Terrace, Wasleys 5400","BRANCHADDRESS":"<Null>","HOURS":"NULL","OBJECTID_1":"81","latitude":"-34.47040600","PHONE":"NULL","COUNCIL_NAME":"Light Regional Council","EMAIL":" ","COMMENT_":"NULL","WEBSITE":"http:\/\/www.light.sa.gov.au\/site\/page.cfm?u=218","longitude":"138.68344800","NAME":"Wasleys Public Library"},
{"address":"61 Old Port Wakefield Rd, Two Wells  5501","BRANCHADDRESS":"Windsor Institute, Windsor 5501 Sun 10am - 11am Mallala - Redbanks Rd, Mallala 5502 (behind council office) Wed 10am - 12 noon, Fri 3pm - 5pm","HOURS":"Tues, Thurs 9.30am - 5pm, Wed 1pm - 7pm, Fri 9.30am - 3pm, Sat 9am - 11am","OBJECTID_1":"82","latitude":"-34.59402900","PHONE":"8520 2100","COUNCIL_NAME":"The Dc Of Mallala","EMAIL":"NULL","COMMENT_":"NULL","WEBSITE":"http:\/\/www.mallala.sa.gov.au","longitude":"138.51484000","NAME":"Two Wells Public Library"},
{"address":"Washington St, Angaston  5353","BRANCHADDRESS":"NULL","HOURS":"Mon 2pm - 6pm, Tues 9am - 1pm, Wed - Fri 1pm - 5pm, After hours returns available","OBJECTID_1":"83","latitude":"-34.50475600","PHONE":"8564 2369","COUNCIL_NAME":"The Barossa Council","EMAIL":"library@barossa.sa.gov.au","COMMENT_":"Council Services including information, Payments available.","WEBSITE":"http:\/\/www.barossa.sa.gov.au","longitude":"139.04409000","NAME":"Barossa Council Library Service - Angaston"},
{"address":"8 Lyndoch Valley Rd, Lyndoch  5351","BRANCHADDRESS":"NULL","HOURS":"Mon, Wed - Fri 9am - 12.30pm, 1.30pm - 5pm, Tues 9am - 12.30pm, 1.30pm - 6pm, Sat 9am - 12 noon, After hours returns available","OBJECTID_1":"84","latitude":"-34.60247100","PHONE":"8524 4009","COUNCIL_NAME":"The Barossa Council","EMAIL":"library@barossa.sa.gov.au","COMMENT_":"Council Services including information, Payments available.","WEBSITE":"http:\/\/www.barossa.sa.gov.au","longitude":"138.89057200","NAME":"Barossa Council Library Service - Lyndoch"},
{"address":"Melrose St, Mount Pleasant  5235","BRANCHADDRESS":"NULL","HOURS":"Mon - Wed, Fri 9am - 12.30pm, 1.30pm - 5pm, Thurs 9am - 12.30pm, 1.30pm - 6pm, After hours returns available","OBJECTID_1":"85","latitude":"-34.78397600","PHONE":"8568 2407","COUNCIL_NAME":"The Barossa Council","EMAIL":"library@barossa.sa.gov.au","COMMENT_":"Council Services including information, Payments available.","WEBSITE":"http:\/\/www.barossa.sa.gov.au","longitude":"139.03129800","NAME":"Barossa Council Library Service - Mount Pleasant"},
{"address":"43-51 Tanunda Rd, Nuriootpa  5355","BRANCHADDRESS":"NULL","HOURS":"Mon - Thurs 9am - 6pm, Fri 9am - 5pm, Sat 9am - 12 noon, Sun 12 noon - 3pm, After hours returns available.","OBJECTID_1":"86","latitude":"-34.48164600","PHONE":"8563 8440","COUNCIL_NAME":"The Barossa Council","EMAIL":"library@barossa.sa.gov.au","COMMENT_":"NULL","WEBSITE":"http:\/\/www.barossa.sa.gov.au","longitude":"138.99199600","NAME":"Barossa Council Library Service - Nuriootpa"},
{"address":"66-68 Murray St, Tanunda  5352","BRANCHADDRESS":"NULL","HOURS":"Mon, Wed - Fri 9am - 5pm, Tues 9am - 6pm, Sat 9am - 12 noon","OBJECTID_1":"87","latitude":"-34.52528200","PHONE":"8561 1300","COUNCIL_NAME":"The Barossa Council","EMAIL":"library@barossa.sa.gov.au","COMMENT_":"Public Library Services only - Council payments no longer available.","WEBSITE":"http:\/\/www.barossa.sa.gov.au","longitude":"138.95919700","NAME":"Barossa Council Library Service - Tanunda"},
{"address":"School Rd, Mindarie  5309","BRANCHADDRESS":"NULL","HOURS":"NULL","OBJECTID_1":"88","latitude":"-34.81120400","PHONE":"8578 7053","COUNCIL_NAME":"The Dc Of Karoonda East Murray","EMAIL":"NULL","COMMENT_":"NULL","WEBSITE":"http:\/\/www.libraries.sa.gov.au","longitude":"140.21834200","NAME":"East Murray School Community Library"},
{"address":"1 North Tce, Karoonda  5307","BRANCHADDRESS":"NULL","HOURS":"NULL","OBJECTID_1":"89","latitude":"-35.09239300","PHONE":"8578 1120","COUNCIL_NAME":"The Dc Of Karoonda East Murray","EMAIL":"NULL","COMMENT_":"NULL","WEBSITE":"http:\/\/bookmark.central.sa.edu.au\/mln.htm","longitude":"139.89563300","NAME":"Karoonda School Community Library"},
{"address":"91 Murray St, Gawler  5118","BRANCHADDRESS":"Evanston Gardens - address 65 Angle Vale Rd, Evanston Gardens 5116, Tel. 8522 0123 Hours: Tues 9am - 5pm","HOURS":"Mon, Wed, Thurs, Fri 9am - 5pm, Tues, Sat 9am - 1pm","OBJECTID_1":"90","latitude":"-34.59928700","PHONE":"8522 9213","COUNCIL_NAME":"Town Of Gawler","EMAIL":"library@gawler.sa.gov.au","COMMENT_":"NULL","WEBSITE":"http:\/\/www.gawlerlibrary.sa.gov.au","longitude":"138.74960500","NAME":"Gawler Public Library"},
{"address":"63-65 Angle Vale Road, Evanstone Gardens, SA 5116","BRANCHADDRESS":"<Null>","HOURS":"Hours: Tues 9am - 5pm","OBJECTID_1":"91","latitude":"-34.62404000","PHONE":"NULL","COUNCIL_NAME":"Town Of Gawler","EMAIL":" ","COMMENT_":"NULL","WEBSITE":"http:\/\/www.gawler.sa.gov.au\/page.aspx?u=530","longitude":"138.71991400","NAME":"Evanstone Gardens Branch Library"},
{"address":"10 Playford Blvd, Elizabeth  5112","BRANCHADDRESS":"NULL","HOURS":"Mon, Wed, Fri 9am - 5pm, Tues 1pm - 5pm, Thurs 9am - 7pm, Sat 10am - 1pm","OBJECTID_1":"92","latitude":"-34.71768300","PHONE":"8256 0334","COUNCIL_NAME":"City Of Playford","EMAIL":"library@playford.sa.gov.au","COMMENT_":"NULL","WEBSITE":"http:\/\/www.playford.sa.gov.au","longitude":"138.67140700","NAME":"Playford Library Service - Elizabeth"},
{"address":"Shop 51, Munno Para Shopping City, 600 Main North Rd, Smithfield  5114","BRANCHADDRESS":"NULL","HOURS":"Mon - Wed 9am - 5pm, Thurs 9am - 8pm, Fri 9am - 7pm, Sat 10am - 4pm, Sun 1pm - 4pm After hours returns available","OBJECTID_1":"93","latitude":"-34.68668300","PHONE":"8254 4600","COUNCIL_NAME":"City Of Playford","EMAIL":"library@playford.sa.gov.au","COMMENT_":"NULL","WEBSITE":"http:\/\/www.playford.sa.gov.au","longitude":"138.68959500","NAME":"Playford Library Service - Munno Para"},
{"address":"63 Mount Barker Rd, Stirling  5152","BRANCHADDRESS":"NULL","HOURS":"Tues, Wed, Fri 10am - 6pm, Thurs 1pm - 8pm, Sat 10am - 5pm, Sun 1pm - 5pm After hours returns available","OBJECTID_1":"94","latitude":"-35.00561900","PHONE":"8408 0420","COUNCIL_NAME":"Adelaide Hills Council","EMAIL":"library@ahc.sa.gov.au","COMMENT_":"NULL","WEBSITE":"http:\/\/www.ahc.sa.gov.au","longitude":"138.71771300","NAME":"Adelaide Hills Library Service - Coventry Library, Stirling"},
{"address":"Civic Centre, Albert Road, Gumeracha  5233","BRANCHADDRESS":"NULL","HOURS":"Tues 10am - 5pm, Fri 10am - 5pm, Sat 10am - 1pm After hours returns available","OBJECTID_1":"95","latitude":"-34.82205400","PHONE":"8389 1455","COUNCIL_NAME":"Adelaide Hills Council","EMAIL":"library@ahc.sa.gov.au","COMMENT_":"NULL","WEBSITE":"http:\/\/www.ahc.sa.gov.au","longitude":"138.88631700","NAME":"Adelaide Hills Library Service - Gumeracha"},
{"address":"NULL","BRANCHADDRESS":"NULL","HOURS":"Schedule available via the website, at Adelaide Hills Council Libraries or tel. 8408 0420. The Mobile Library Service will be cancelled on days with a fire danger rating of Catastrophic for the Mount Lofty Ranges","OBJECTID_1":"96","latitude":"-34.95398000","PHONE":"8408 0420","COUNCIL_NAME":"Adelaide Hills Council","EMAIL":"library@ahc.sa.gov.au","COMMENT_":"NULL","WEBSITE":"http:\/\/www.ahc.sa.gov.au","longitude":"138.87503000","NAME":"Adelaide Hills Library Service - Mobile Library"},
{"address":"26 Onkaparinga Valley Rd, Woodside  5244","BRANCHADDRESS":"NULL","HOURS":"Mon -  Wed & Fri 9am-5pm Thurs 9am-8pm Sat 10am-2pm After hours returns available","OBJECTID_1":"97","latitude":"-34.95042800","PHONE":"8408 0520","COUNCIL_NAME":"Adelaide Hills Council","EMAIL":"library@ahc.sa.gov.au","COMMENT_":"NULL","WEBSITE":"http:\/\/www.ahc.sa.gov.au","longitude":"138.87587500","NAME":"Adelaide Hills Library Service - Woodside"},
{"address":"2 London St, Port Lincoln  5606","BRANCHADDRESS":"NULL","HOURS":"Mon, Tues, Thurs, Fri 9am - 5pm, Wed 9am - 7pm, Sun 1pm - 4.30pm After hours returns available","OBJECTID_1":"98","latitude":"-34.72383500","PHONE":"8688 3622","COUNCIL_NAME":"City Of Port Lincoln","EMAIL":"NULL","COMMENT_":"A joint-use library managed by TAFE SA Port Lincoln Campus and City of Port Lincoln","WEBSITE":"http:\/\/www.portlincoln.sa.gov.au","longitude":"135.86608700","NAME":"Port Lincoln Public Library"},
{"address":"Beovich Rd, Ingle Farm  5098","BRANCHADDRESS":"NULL","HOURS":"Mon - Wed, Fri 9.30am - 5.30pm, Thurs 9.30am - 8pm, Sat 9.30am - 3.30pm, Sun 1.30pm - 4.30pm","OBJECTID_1":"99","latitude":"-34.83010800","PHONE":"8265 4717","COUNCIL_NAME":"City Of Salisbury","EMAIL":"library@salisbury.sa.gov.au","COMMENT_":"NULL","WEBSITE":"http:\/\/www.salisburylibrary.sa.gov.au","longitude":"138.64216800","NAME":"Salisbury Library Service - Ingle Farm"},
{"address":"55 John St, Salisbury  5108","BRANCHADDRESS":"NULL","HOURS":"Mon - Wed, Fri 9.30am - 5.30pm Thurs 9.30am - 8pm Sat 9.30am - 3.30pm Sun 1.30pm - 4.30pm After hours returns available","OBJECTID_1":"100","latitude":"-34.76283000","PHONE":"8406 8283, 8406 8284","COUNCIL_NAME":"City Of Salisbury","EMAIL":"library@salisbury.sa.gov.au","COMMENT_":"NULL","WEBSITE":"http:\/\/www.salisburylibrary.sa.gov.au","longitude":"138.64538400","NAME":"Salisbury Library Service - Len Beadell Library"},
{"address":"2-8 Main St, Mawson Lakes  5095","BRANCHADDRESS":"NULL","HOURS":"Mon, Wed, Fri 9.30am - 5pm, Tues, Thurs 9.30am - 7pm, Sat 10am - 4pm, Sun 2pm - 5pm, After hours returns available","OBJECTID_1":"101","latitude":"-34.81077100","PHONE":"8302 5555","COUNCIL_NAME":"City Of Salisbury","EMAIL":"library@salisbury.sa.gov.au","COMMENT_":"NULL","WEBSITE":"http:\/\/www.salisburylibrary.sa.gov.au","longitude":"138.61730300","NAME":"Salisbury Library Service - Mawson Lakes"},
{"address":"Wilkinson Rd, Para Hills  5096","BRANCHADDRESS":"NULL","HOURS":"Mon, Wed, Fri 9.30am - 5pm, Tues, 9.30am - 2pm, Thurs 2.30pm - 7pm, Sat 10am - 1pm","OBJECTID_1":"102","latitude":"-34.81112100","PHONE":"8264 2512","COUNCIL_NAME":"City Of Salisbury","EMAIL":"library@salisbury.sa.gov.au","COMMENT_":"NULL","WEBSITE":"http:\/\/www.salisburylibrary.sa.gov.au","longitude":"138.65267500","NAME":"Salisbury Library Service - Para Hills"},
{"address":"Hollywood Blvd, Salisbury Downs  5108","BRANCHADDRESS":"NULL","HOURS":"Mon - Wed, Fri 9.30am - 5.30pm, Thurs 9.30am - 8pm, Sat 9.30am - 12.30pm","OBJECTID_1":"103","latitude":"-34.76955400","PHONE":"8258 2788","COUNCIL_NAME":"City Of Salisbury","EMAIL":"library@salisbury.sa.gov.au","COMMENT_":"NULL","WEBSITE":"http:\/\/www.salisburylibrary.sa.gov.au","longitude":"138.62337600","NAME":"Salisbury Library Service - Salisbury West"},
{"address":"571 Montague Rd, Modbury  5092","BRANCHADDRESS":"NULL","HOURS":"Mon, Wed 10am - 8pm, Tues, Thurs - Sat 10am - 5pm, Sun 1pm - 5pm After hours returns available","OBJECTID_1":"104","latitude":"-34.82832000","PHONE":"8397 7333","COUNCIL_NAME":"City Of Tea Tree Gully","EMAIL":"library@cttg.sa.gov.au","COMMENT_":"NULL","WEBSITE":"http:\/\/www.ttglibrary.sa.gov.au","longitude":"138.69003400","NAME":"Tea Tree Gully Public Library"},
{"address":"1 Kensington Cres, Enfield  5085","BRANCHADDRESS":"NULL","HOURS":"Mon - Wed 9.30am - 5.30pm, Thurs 9.30am - 8pm, Fri 10am - 5.30pm, Sat 9.30am - 1pm, Sun 1.30pm - 5pm","OBJECTID_1":"105","latitude":"-34.85329000","PHONE":"8405 6530","COUNCIL_NAME":"City Of Port Adelaide Enfield","EMAIL":"libmail@portenf.sa.gov.au","COMMENT_":"NULL","WEBSITE":"http:\/\/www.portenf.sa.gov.au","longitude":"138.60164000","NAME":"Port Adelaide Enfield Public Library Service - Enfield"},
{"address":"2 Fosters Rd, Greenacres  5086","BRANCHADDRESS":"NULL","HOURS":"Mon - Wed 9.30am - 5.30pm, Thurs 9.30am - 8pm, Fri 10am - 5.30pm, Sat 9.30am - 1pm, Sun 1.30pm - 5pm","OBJECTID_1":"106","latitude":"-34.87020500","PHONE":"8405 6540","COUNCIL_NAME":"City Of Port Adelaide Enfield","EMAIL":"libmail@portenf.sa.gov.au","COMMENT_":"NULL","WEBSITE":"http:\/\/www.portenf.sa.gov.au","longitude":"138.63740100","NAME":"Port Adelaide Enfield Public Library Service - Greenacres"},
{"address":"2 - 46 Cowan St, Angle Park  5010","BRANCHADDRESS":"NULL","HOURS":"Mon, Tues, Wed 9.30am - 5.30pm, Thurs 9.30am - 8pm, Fri 10am - 5.30pm, Sat Closed, Sun 1.30pm - 5pm","OBJECTID_1":"107","latitude":"-34.85808700","PHONE":"8243 5691","COUNCIL_NAME":"City Of Port Adelaide Enfield","EMAIL":"libmail@portenf.sa.gov.au","COMMENT_":"NULL","WEBSITE":"http:\/\/www.portenf.sa.gov.au","longitude":"138.55814300","NAME":"Port Adelaide Enfield Public Library Service - Parks"},
{"address":"2 - 4 Church St, Port Adelaide  5015","BRANCHADDRESS":"NULL","HOURS":"Mon - Wed 9.30am - 5.30pm, Thurs 9.30am - 8pm, Fri 10am - 5.30pm, Sat 9.30am - 4pm","OBJECTID_1":"108","latitude":"-34.84738200","PHONE":"8405 6580","COUNCIL_NAME":"City Of Port Adelaide Enfield","EMAIL":"libmail@portenf.sa.gov.au","COMMENT_":"NULL","WEBSITE":"http:\/\/www.portenf.sa.gov.au","longitude":"138.50338900","NAME":"Port Adelaide Enfield Public Library Service - Port Adelaide"},
{"address":"14 Semaphore Rd, Semaphore  5019","BRANCHADDRESS":"NULL","HOURS":"Mon - Wed 9.30am - 5.30pm, Thurs 9.30am - 8pm, Fri 10am - 5.30pm, Sat 9.30am - 1pm, Sun 1.30pm - 5pm","OBJECTID_1":"109","latitude":"-34.83881600","PHONE":"8405 6570","COUNCIL_NAME":"City Of Port Adelaide Enfield","EMAIL":"libmail@portenf.sa.gov.au","COMMENT_":"NULL","WEBSITE":"http:\/\/www.portenf.sa.gov.au","longitude":"138.48117600","NAME":"Port Adelaide Enfield Public Library Service - Semaphore"},
{"address":"72 Woodville Rd, Woodville  5011","BRANCHADDRESS":"NULL","HOURS":"Mon - Thurs 10am - 5.30pm, Fri 10am - 8pm, Sat 9.15am - 12 noon, Sun 1.30pm - 4.30pm, After hours returns available","OBJECTID_1":"110","latitude":"-34.87872800","PHONE":"8408 1333","COUNCIL_NAME":"City Of Charles Sturt","EMAIL":"library@charlessturt.sa.gov.au","COMMENT_":"NULL","WEBSITE":"http:\/\/www.charlessturt.sa.gov.au","longitude":"138.53774600","NAME":"Charles Sturt Library Service - Civic, Woodville"},
{"address":"Findon Shopping Centre, cnr Findon Rd and Grange Rd, Findon  5023","BRANCHADDRESS":"NULL","HOURS":"Mon, Tues, Fri 10am - 5.30pm, Wed 10am - 5.30pm, Thurs 10am - 8pm, Sat 9.15am - 1pm, After hours returns available","OBJECTID_1":"111","latitude":"-34.90481400","PHONE":"8408 1333","COUNCIL_NAME":"City Of Charles Sturt","EMAIL":"library@charlessturt.sa.gov.au","COMMENT_":"NULL","WEBSITE":"http:\/\/www.charlessturt.sa.gov.au","longitude":"138.53033300","NAME":"Charles Sturt Library Service - Findon"},
{"address":"378 Seaview Rd, Henley Beach  5022","BRANCHADDRESS":"NULL","HOURS":"Tues, Thurs, Fri 10am - 5.30pm, Wed 1pm - 8pm, Sat 9.30am - 12 noon, Sun 1.30pm - 4pm, After hours returns available","OBJECTID_1":"112","latitude":"-34.91688200","PHONE":"8408 1333","COUNCIL_NAME":"City Of Charles Sturt","EMAIL":"library@charlessturt.sa.gov.au","COMMENT_":"NULL","WEBSITE":"http:\/\/www.charlessturt.sa.gov.au","longitude":"138.49386300","NAME":"Charles Sturt Library Service - Henley Beach"},
{"address":"139 Port Rd, Hindmarsh  5007","BRANCHADDRESS":"NULL","HOURS":"Mon - Fri 10am - 7pm, Sat 12.30pm - 4.30pm, After hours returns available","OBJECTID_1":"113","latitude":"-34.90574400","PHONE":"8408 1333","COUNCIL_NAME":"City Of Charles Sturt","EMAIL":"library@charlessturt.sa.gov.au","COMMENT_":"NULL","WEBSITE":"http:\/\/www.charlessturt.sa.gov.au","longitude":"138.57356800","NAME":"Charles Sturt Library Service - Hindmarsh"},
{"address":"Cnr Brebner Dr & West Lakes Blvd, West Lakes  5021","BRANCHADDRESS":"NULL","HOURS":"Mon - Wed, Fri 8.30am - 5.30pm, Thurs 8.30am - 8pm, Sat 9.15am - 5pm, Sun 1.30pm - 4.30pm, After hours returns available","OBJECTID_1":"114","latitude":"-34.87682100","PHONE":"8408 1333","COUNCIL_NAME":"City Of Charles Sturt","EMAIL":"library@charlessturt.sa.gov.au","COMMENT_":"NULL","WEBSITE":"http:\/\/www.charlessturt.sa.gov.au","longitude":"138.49221000","NAME":"Charles Sturt Library Service - West Lakes"},
{"address":"171 Montacute Rd, Newton  5074","BRANCHADDRESS":"NULL","HOURS":"Mon 10am-6pm Tues 9.30am - 8pm Wed, Thurs 9.30am - 6pm Fri 9.30am - 8pm Sat 9.30am-2pm Sun 1pm-5pm After hours returns available Closed all public holidays","OBJECTID_1":"115","latitude":"-34.88788400","PHONE":"8366 9299","COUNCIL_NAME":"Campbelltown City Council","EMAIL":"library@campbelltown.sa.gov.au","COMMENT_":"Bus ticket purchase and public telephone available","WEBSITE":"www.campbelltown.sa.gov.au","longitude":"138.67833900","NAME":"Campbelltown Public Library"},
{"address":"Thomas St Centre, Nailsworth  5083","BRANCHADDRESS":"NULL","HOURS":"Tues 10.15am - 8.30pm, Wed - Fri 10.15am - 6pm, Sat 9am - 4pm, Sun 2pm - 5pm, Closed Mon. After hours returns available","OBJECTID_1":"116","latitude":"-34.88250300","PHONE":"8342 8170","COUNCIL_NAME":"The City Of Prospect","EMAIL":"admin@prospect.sa.gov.au","COMMENT_":"NULL","WEBSITE":"http:\/\/www.prospect.sa.gov.au","longitude":"138.60296300","NAME":"Prospect Public Library"},
{"address":"62 Walkerville Tce, Gilberton  5081","BRANCHADDRESS":"NULL","HOURS":"Mon, Tues, Thurs, Fri 9am - 5pm, Wed 9am - 8pm, Sat 9.15am - 12 noon, Sun 2.30pm - 5pm","OBJECTID_1":"117","latitude":"-34.89787100","PHONE":"8342 7150","COUNCIL_NAME":"The Corporation Of The Town Of Walkerville","EMAIL":"NULL","COMMENT_":"NULL","WEBSITE":"http:\/\/www.walkerville.sa.gov.au","longitude":"138.61476800","NAME":"Walkerville Library"},
{"address":"110 The Parade, Norwood  5067","BRANCHADDRESS":"NULL","HOURS":"Tues, Wed 1pm - 5.30pm, Thurs 1pm - 9pm, Fri 9.30am - 5.30pm, Sat 9am - 12 noon, Sun 2pm - 5pm, After hours returns available Mon - Fri 9am - 5pm","OBJECTID_1":"118","latitude":"-34.92167900","PHONE":"8366 4546","COUNCIL_NAME":"The City Of Norwood Payneham And St Peters","EMAIL":"townhall@npsp.sa.gov.au","COMMENT_":"NULL","WEBSITE":"www.npsp.sa.gov.au\/site\/page.cfm?u=241","longitude":"138.63167700","NAME":"Norwood Public Library"},
{"address":"2 Turner St, Felixstow  5070","BRANCHADDRESS":"NULL","HOURS":"Mon, Thurs 10am - 8pm, Wed, Fri 10am - 6pm, Sat 9am -12 noon, After hours returns available","OBJECTID_1":"119","latitude":"-34.89135400","PHONE":"8336 0333","COUNCIL_NAME":"The City Of Norwood Payneham And St Peters","EMAIL":"townhall@npsp.sa.gov.au","COMMENT_":"NULL","WEBSITE":"http:\/\/www.npsp.sa.gov.au","longitude":"138.64266000","NAME":"Payneham Public Library"},
{"address":"101 Payneham Rd, St Peters  5069","BRANCHADDRESS":"NULL","HOURS":"Mon, Thurs, Fri 10.30am - 6pm, Tues 10.30am - 9pm, Sat 9.30am - 12 noon, Sun 2pm - 5pm After hours returns at rear of library","OBJECTID_1":"120","latitude":"-34.91084300","PHONE":"8334 0200","COUNCIL_NAME":"The City Of Norwood Payneham And St Peters","EMAIL":"townhall@npsp.sa.gov.au","COMMENT_":"NULL","WEBSITE":"www.npsp.sa.gov.au\/site\/page.cfm?u=241","longitude":"138.62679600","NAME":"St Peters Public Library"},
{"address":"5 Dumas St, Mount Barker  5251","BRANCHADDRESS":"NULL","HOURS":"Mon 9am - 7pm, Tues, Wed, Fri 9am - 5pm, Thurs 9am - 8pm, Sat 9am - 4pm, Toy library: Tues, Wed, Fri 11am - 12.30pm, Thurs 11am - 12.30pm, 3pm - 4.30pm, 6pm - 8pm","OBJECTID_1":"121","latitude":"-35.06967600","PHONE":"8391 7312","COUNCIL_NAME":"The Dc Of Mount Barker","EMAIL":"library@dcmtbarker.sa.gov.au","COMMENT_":"NULL","WEBSITE":"http:\/\/www.dcmtbarker.sa.gov.au","longitude":"138.85472200","NAME":"Mount Barker Community Library"},
{"address":"18 Grote St, Adelaide  5000","BRANCHADDRESS":"NULL","HOURS":"Mon - Thurs 10am - 6pm, Fri 10am - 8pm, Sat 11am - 3pm After hours returns available","OBJECTID_1":"122","latitude":"-34.92840700","PHONE":"8203 7990","COUNCIL_NAME":"Adelaide City Council","EMAIL":"library@adelaidecitycouncil.com","COMMENT_":"NULL","WEBSITE":"http:\/\/www.adelaidecitycouncil.com\/library","longitude":"138.59839800","NAME":"Adelaide City Council Library Service - Grote Street"},
{"address":"235 Hutt St, Adelaide  5000","BRANCHADDRESS":"NULL","HOURS":"Mon - Wed, Fri 10am - 6pm, Thurs 10am - 8pm, Sat 11am - 2pm After hours returns available","OBJECTID_1":"123","latitude":"-34.93348400","PHONE":"8203 7990","COUNCIL_NAME":"Adelaide City Council","EMAIL":"library@adelaidecitycouncil.com","COMMENT_":"NULL","WEBSITE":"http:\/\/www.adelaidecitycouncil.com\/library","longitude":"138.61201900","NAME":"Adelaide City Council Library Service - Hutt Street"},
{"address":"176 Tynte St, North Adelaide  5006","BRANCHADDRESS":"NULL","HOURS":"Mon - Wed, Fri 10am - 6pm, Thurs 10am - 8pm, Sat 11am - 2pm After hours returns available","OBJECTID_1":"124","latitude":"-34.90600300","PHONE":"8203 7990","COUNCIL_NAME":"Adelaide City Council","EMAIL":"library@adelaidecitycouncil.com","COMMENT_":"NULL","WEBSITE":"http:\/\/www.adelaidecitycouncil.com\/library","longitude":"138.59376200","NAME":"Adelaide City Council Library Service - North Adelaide"},
{"address":"Corner of North Tce & Kintore Ave, Adelaide  5000","BRANCHADDRESS":"NULL","HOURS":"Mon - Fri 10am - 6pm, Sat, Sun 12 noon - 5pm After hours returns available in Kintore Avenue","OBJECTID_1":"125","latitude":"-34.92156800","PHONE":"8203 7990","COUNCIL_NAME":"Adelaide City Council","EMAIL":"library@adelaidecitycouncil.com","COMMENT_":"NULL","WEBSITE":"http:\/\/www.adelaidecitycouncil.com\/library","longitude":"138.59913700","NAME":"Adelaide City Council Library Service - North Terrace"},
{"address":"1 Brooker Tce, Hilton  5033","BRANCHADDRESS":"NULL","HOURS":"Mon, Tues, Fri 10am - 6pm Wed 8am - 6pm Thurs 10am - 8pm Sat 10am - 4pm Sun 1pm - 4pm","OBJECTID_1":"126","latitude":"-34.93396200","PHONE":"8416 6228","COUNCIL_NAME":"City Of West Torrens","EMAIL":"library@wtcc.sa.gov.au","COMMENT_":"NULL","WEBSITE":"http:\/\/www.westtorrens.sa.gov.au\/Library","longitude":"138.56192000","NAME":"West Torrens Library Service"},
{"address":"1 Brooker Tce, Hilton  5033","BRANCHADDRESS":"NULL","HOURS":"Mon, Wed - Sat. Closed Tues","OBJECTID_1":"127","latitude":"-34.93396200","PHONE":"8416 6228","COUNCIL_NAME":"City Of West Torrens","EMAIL":"library@wtcc.sa.gov.au","COMMENT_":"Visits the suburbs of Brooklyn Park, Camden Park, Fulham, Glandore, Glenelg North, Keswick, Kurralta Park, Lockleys, Marleston, Netley, North Plympton, Novar Gardens, Plympton, Torrensville and West Beach","WEBSITE":"http:\/\/www.westtorrens.sa.gov.au\/Library","longitude":"138.56192000","NAME":"West Torrens Library Service - Mobile Library"},
{"address":"401 Greenhill Rd, Tusmore  5065","BRANCHADDRESS":"NULL","HOURS":"Mon - Wed, Fri 9.30am - 6pm, Thurs 9.30am - 9pm, Sat 10am - 4pm, Sun 2pm - 5pm After hours returns at rear of library in Hyde Street","OBJECTID_1":"128","latitude":"-34.93843400","PHONE":"8366 4280","COUNCIL_NAME":"City Of Burnside","EMAIL":"library@burnside.sa.gov.au","COMMENT_":"NULL","WEBSITE":"http:\/\/www.burnside.sa.gov.au","longitude":"138.64316800","NAME":"Burnside Library & Information Service"},
{"address":"Middle of Glenunga Reserve L'Estrange Street GLENUNGA  SA  5064","BRANCHADDRESS":"NULL","HOURS":"NULL","OBJECTID_1":"129","latitude":"-34.94711600","PHONE":"(08) 8338 4131","COUNCIL_NAME":"City Of Burnside","EMAIL":"hwright@burnside.sa.gov.au","COMMENT_":"NULL","WEBSITE":"http:\/\/www.burnside.sa.gov.au\/goto\/Toylibrary","longitude":"138.63556700","NAME":"Burnside Library - Toy Library"},
{"address":"Level 2, Murray Bridge Market Place, Murray Bridge  5253","BRANCHADDRESS":"NULL","HOURS":"Mon - Thurs 9.30am - 6pm, Fri 9.30am - 8pm, Sat 9.30am - 1pm","OBJECTID_1":"130","latitude":"-35.11861500","PHONE":"8539 1175","COUNCIL_NAME":"The Rural City Of Murray Bridge","EMAIL":"library@rcmb.sa.gov.au","COMMENT_":"Mother's room available with lounge, baby change table and hand washing facilities","WEBSITE":"http:\/\/library.rcmb.sa.gov.au","longitude":"139.27867000","NAME":"Murray Bridge Public Library"},
{"address":"181 Unley Rd, Unley  5061","BRANCHADDRESS":"NULL","HOURS":"Mon 1pm - 6pm, Tues, Wed, Fri 10am - 6pm, Thurs 10am - 8pm, Sat 10am - 4pm, Sun 2pm - 5pm, After hours returns available, Also see Goodwood and Fullarton Park branches","OBJECTID_1":"131","latitude":"-34.95772100","PHONE":"8372 5100. Toy library: 8372 5174","COUNCIL_NAME":"City Of Unley","EMAIL":"pobox1@unley.sa.gov.au","COMMENT_":"NULL","WEBSITE":"http:\/\/www.unley.sa.gov.au","longitude":"138.62508800","NAME":"Unley Library Service"},
{"address":"411 Fullarton Rd, Fullarton Park  5063","BRANCHADDRESS":"NULL","HOURS":"Mon 11am - 1pm, Tues 12.30pm - 3pm, Thurs 10am - 1pm","OBJECTID_1":"132","latitude":"-34.95080100","PHONE":"8372 5167","COUNCIL_NAME":"City Of Unley","EMAIL":"pobox1@unley.sa.gov.au","COMMENT_":"NULL","WEBSITE":"http:\/\/www.unley.sa.gov.au","longitude":"138.58979800","NAME":"Unley Library Service - Fullarton Park"},
{"address":"101 Goodwood Rd, Goodwood  5034","BRANCHADDRESS":"NULL","HOURS":"Mon 10.30am - 5pm, Tues 10am - 6pm, Wed 1pm - 5pm, Thurs 10am - 6pm, Fri 10am - 5pm, Sat 10am - 1pm, After hours returns available","OBJECTID_1":"133","latitude":"-34.95076300","PHONE":"8372 5166","COUNCIL_NAME":"City Of Unley","EMAIL":"pobox1@unley.sa.gov.au","COMMENT_":"NULL","WEBSITE":"http:\/\/www.unley.sa.gov.au","longitude":"138.60782200","NAME":"Unley Library Service - Goodwood"},
{"address":"Marion Cultural Centre 287 Diagonal Road, Oaklands Park  5046","BRANCHADDRESS":"NULL","HOURS":"Mon, Tues, Thurs, Fri 10am - 8pm, Wed 10am - 6pm, Sat 10am - 4pm, Sun 1pm - 4pm","OBJECTID_1":"134","latitude":"-35.01362900","PHONE":"8375 6785","COUNCIL_NAME":"City Of Marion","EMAIL":"marionlibrary@marion.sa.gov.au","COMMENT_":"NULL","WEBSITE":"http:\/\/www.marion.sa.gov.au","longitude":"138.54329800","NAME":"Marion Library Service - Cultural Centre Library"},
{"address":"1 Zwerner Dr, Hallett Cove  5158","BRANCHADDRESS":"NULL","HOURS":"Tues, Wed, Fri 10am - 5pm, Thurs 10am - 8pm, Sat 10am - 4pm, Sun 1pm - 4pm","OBJECTID_1":"135","latitude":"-35.07679600","PHONE":"8375 6755","COUNCIL_NAME":"City Of Marion","EMAIL":"marionlibrary@marion.sa.gov.au","COMMENT_":"NULL","WEBSITE":"http:\/\/www.marion.sa.gov.au","longitude":"138.51615600","NAME":"Marion Library Service - Hallett Cove"},
{"address":"Duncan Ave, Park Holme  5043","BRANCHADDRESS":"NULL","HOURS":"Mon, Tues, Thurs, Fri 10am - 5pm, Wed 10am - 8pm, Sat 10am - 4pm","OBJECTID_1":"136","latitude":"-34.99180800","PHONE":"8375 6745","COUNCIL_NAME":"City Of Marion","EMAIL":"marionlibrary@marion.sa.gov.au","COMMENT_":"NULL","WEBSITE":"http:\/\/www.marion.sa.gov.au","longitude":"138.55549200","NAME":"Marion Library Service - Park Holme"},
{"address":"20 Jetty Rd, Brighton  5048","BRANCHADDRESS":"NULL","HOURS":"Mon, Thurs, Fri 9am - 5pm, Tues 9am - 7pm, Sat 9am - 1pm After hours returns available","OBJECTID_1":"137","latitude":"-35.01675900","PHONE":"8229 9988","COUNCIL_NAME":"City Of Holdfast Bay","EMAIL":"blibrary@holdfast.sa.gov.au","COMMENT_":"NULL","WEBSITE":"http:\/\/www.holdfast.sa.gov.au\/libraries","longitude":"138.52009200","NAME":"Holdfast Bay Library Service - Brighton"},
{"address":"2 Colley Tce, Glenelg  5045","BRANCHADDRESS":"NULL","HOURS":"Mon, Tues, Thurs, Fri 9am - 5pm, Wed 9am - 7pm, Sat 9am - 1pm, Sun 1pm - 4pm After hours returns available","OBJECTID_1":"138","latitude":"-34.97977000","PHONE":"8295 2580","COUNCIL_NAME":"City Of Holdfast Bay","EMAIL":"glibrary@holdfast.sa.gov.au","COMMENT_":"NULL","WEBSITE":"http:\/\/www.holdfast.sa.gov.au\/libraries","longitude":"138.51208600","NAME":"Holdfast Bay Library Service - Glenelg"},
{"address":"215 Main Rd, Blackwood  5051","BRANCHADDRESS":"NULL","HOURS":"Mon - Wed 10am - 5.30pm, Thurs 10am - 8pm, Fri 10am - 2pm, Sat 10am - 4pm, Sun 2pm - 5pm Closed public holidays, Blackwood Library closed on all Extreme and Catastrophic Fire Danger Days declared in the Mount Lofty Ranges Fire Ban District","OBJECTID_1":"139","latitude":"-35.01804100","PHONE":"NULL","COUNCIL_NAME":"City Of Mitcham","EMAIL":"library@mitchamcouncil.sa.gov.au","COMMENT_":"Library Community Bus provides monthly service on Mondays to Mitcham and Blackwood Libraries.","WEBSITE":"http:\/\/www.mitchamcouncil.sa.gov.au","longitude":"138.61677400","NAME":"Blackwood Library"},
{"address":"154 Belair Rd, Hawthorn  5062","BRANCHADDRESS":"NULL","HOURS":"Mon, Tues, Thurs 10am - 5.30pm, Wed 10am - 8pm, Fri 10am - 2pm, Sat 10am - 4pm, Sun 2pm - 5pm Closed public holidays After hours returns available","OBJECTID_1":"140","latitude":"-34.97288300","PHONE":"8372 8244","COUNCIL_NAME":"City Of Mitcham","EMAIL":"library@mitchamcouncil.sa.gov.au","COMMENT_":"Library Community Bus provides monthly service on Mondays to Mitcham and Blackwood Libraries","WEBSITE":"http:\/\/www.mitchamcouncil.sa.gov.au","longitude":"138.60871200","NAME":"Mitcham Library"},
{"address":"1 Bews Tce, Lameroo  5302","BRANCHADDRESS":"NULL","HOURS":"School terms: Mon 9am - 4pm, Tues - Fri 9am - 6pm School holidays: Tues, Wed, Fri 11.30am - 6pm, Thurs 10am - 1pm","OBJECTID_1":"141","latitude":"-35.33119300","PHONE":"8576 3490","COUNCIL_NAME":"Southern Mallee Dc","EMAIL":"lameroo.library@plain.sa.gov.au","COMMENT_":"NULL","WEBSITE":"http:\/\/bookmark.central.sa.edu.au\/mln.htm","longitude":"140.52092900","NAME":"Lameroo School Community Library"},
{"address":"Bundey Tce, Pinnaroo  5304","BRANCHADDRESS":"NULL","HOURS":"School terms: Mon 9am - 4pm, Tues 10am - 3.30pm, Wed 9am - 4pm, Thurs, Fri 9am - 7pm, School holidays: Tues 10am - 3.30pm, Wed 10am - 4pm, Thurs, Fri 10.30am - 7pm, After hours returns available","OBJECTID_1":"142","latitude":"-35.25747100","PHONE":"8577 8176","COUNCIL_NAME":"Southern Mallee Dc","EMAIL":"blacksell.tiffany@plain.sa.gov.au","COMMENT_":"NULL","WEBSITE":"http:\/\/www.libraries.sa.gov.au","longitude":"140.90513100","NAME":"Pinnaroo School Community Library"},
{"address":"Aldinga Central Shopping Centre, Aldinga Beach  5173","BRANCHADDRESS":"NULL","HOURS":"Mon - Wed, Fri 10am - 5pm, Thurs 10am - 8pm, Sat 9am - 12 noon, after hours returns chute available","OBJECTID_1":"143","latitude":"-35.27865900","PHONE":"8384 0022","COUNCIL_NAME":"City Of Onkaparinga","EMAIL":"libraries@onkaparinga.sa.gov.au","COMMENT_":"NULL","WEBSITE":"http:\/\/www.onkaparingacity.com\/libraries","longitude":"138.45771700","NAME":"Onkaparinga Library Service - Aldinga"},
{"address":"Hub Dr, Aberfoyle Park  5159","BRANCHADDRESS":"NULL","HOURS":"Mon, Tues, Fri 9.30am - 6pm, Wed, Thurs 9.30am - 8pm, Sat 10am - 3pm, Sun 2pm - 5pm,  after hours returns chute available","OBJECTID_1":"144","latitude":"-35.07594100","PHONE":"8384 0100","COUNCIL_NAME":"City Of Onkaparinga","EMAIL":"libraries@onkaparinga.sa.gov.au","COMMENT_":"Joint use library.","WEBSITE":"www.onkaparingacity.com\/libraries","longitude":"138.59590700","NAME":"Onkaparinga Library Service - Hub Library"},
{"address":"Hannah Rd, Noarlunga Centre  5168","BRANCHADDRESS":"NULL","HOURS":"Mon - Thurs 10am - 8pm, Fri 10am - 5pm, Sat 10am - 4pm","OBJECTID_1":"145","latitude":"-35.13928500","PHONE":"8384 0655","COUNCIL_NAME":"City Of Onkaparinga","EMAIL":"libraries@onkaparinga.sa.gov.au","COMMENT_":"NULL","WEBSITE":"www.onkaparingacity.com\/libraries","longitude":"138.49515300","NAME":"Onkaparinga Library Service - Noarlunga"},
{"address":"Grand Blvd, Seaford  5169","BRANCHADDRESS":"NULL","HOURS":"Mon - Wed, Fri 9am - 5pm, Thurs 12 noon - 8pm, Sat 9am - 12 noon, after hours returns chute available","OBJECTID_1":"146","latitude":"-35.18694900","PHONE":"8384 0044","COUNCIL_NAME":"City Of Onkaparinga","EMAIL":"libraries@onkaparinga.sa.gov.au","COMMENT_":"Joint use library. ","WEBSITE":"www.onkaparingacity.com\/libraries","longitude":"138.48111900","NAME":"Onkaparinga Library Service - Seaford"},
{"address":"St Peter's Tce, Willunga  5172","BRANCHADDRESS":"NULL","HOURS":"Mon - Wed, Fri 8.30am - 5pm, Thurs 8.30am - 6pm, Sun 2pm - 5pm, after hours returns chute available","OBJECTID_1":"147","latitude":"-35.27343000","PHONE":"8384 0006","COUNCIL_NAME":"City Of Onkaparinga","EMAIL":"libraries@onkaparinga.sa.gov.au","COMMENT_":"Joint use with Council Customer Service office.","WEBSITE":"http:\/\/www.onkaparingacity.com\/libraries","longitude":"138.55710600","NAME":"Onkaparinga Library Service - Willunga"},
{"address":"Woodcroft Community Centre, Morphett Vale  5162","BRANCHADDRESS":"NULL","HOURS":"Mon - Wed and Fri 10am - 5.30pm, Thurs 10am - 8pm and Sun 1pm - 4pm, after hours chute available","OBJECTID_1":"148","latitude":"-35.11347900","PHONE":"8384 0050","COUNCIL_NAME":"City Of Onkaparinga","EMAIL":"libraries@onkaparinga.sa.gov.au","COMMENT_":"NULL","WEBSITE":"www.onkaparingacity.com\/libraries","longitude":"138.54584400","NAME":"Onkaparinga Library Service - Woodcroft"},
{"address":"11 Cadell St, Goolwa  5214","BRANCHADDRESS":"NULL","HOURS":"Mon - Fri 9am - 5pm, Sat 9am - 12 noon After hours returns available","OBJECTID_1":"149","latitude":"-35.50185700","PHONE":"8555 7000","COUNCIL_NAME":"Alexandrina Council","EMAIL":"glibrary@alexandrina.sa.gov.au","COMMENT_":"NULL","WEBSITE":"http:\/\/www.alexandrina.sa.gov.au","longitude":"138.78224300","NAME":"Alexandrina Library Service - Goolwa"},
{"address":"Institute Bldg, Coxe St, Milang  5256","BRANCHADDRESS":"NULL","HOURS":"Mon 3pm - 5pm, Fri 9.30am - 12 noon Open Wed 10am - 12 noon when a public holiday occurs on Mon or Fri After hours returns available","OBJECTID_1":"150","latitude":"-35.40721400","PHONE":"8555 7000","COUNCIL_NAME":"Alexandrina Council","EMAIL":"glibrary@alexandrina.sa.gov.au","COMMENT_":"NULL","WEBSITE":"http:\/\/www.alexandrina.sa.gov.au","longitude":"138.96955900","NAME":"Alexandrina Library Service - Milang Depot"},
{"address":"Mount Compass Area School, School Rd, Mount Compass  5210","BRANCHADDRESS":"NULL","HOURS":"School terms: Mon - Fri 8.45am - 4.15pm School holidays: Wed 10am - 12 noon After hours returns available","OBJECTID_1":"151","latitude":"-35.34879300","PHONE":"8555 7000","COUNCIL_NAME":"Alexandrina Council","EMAIL":"glibrary@alexandrina.sa.gov.au","COMMENT_":"NULL","WEBSITE":"http:\/\/www.alexandrina.sa.gov.au","longitude":"138.61978800","NAME":"Alexandrina Library Service - Mount Compass Depot"},
{"address":"16 The Strand, Port Elliot  5212","BRANCHADDRESS":"NULL","HOURS":"Wed 2pm - 4.30pm, Sat 9.30am - 12 noon After hours returns available","OBJECTID_1":"152","latitude":"-35.53283700","PHONE":"8555 7000","COUNCIL_NAME":"Alexandrina Council","EMAIL":"glibrary@alexandrina.sa.gov.au","COMMENT_":"NULL","WEBSITE":"http:\/\/www.alexandrina.sa.gov.au","longitude":"138.68195200","NAME":"Alexandrina Library Service - Port Elliot Depot"},
{"address":"1 Colman Tce, Strathalbyn  5255","BRANCHADDRESS":"NULL","HOURS":"Mon - Fri 9am - 5pm,  Sat 9am - 12 noon","OBJECTID_1":"153","latitude":"-35.25756400","PHONE":"8555 7000","COUNCIL_NAME":"Alexandrina Council","EMAIL":"glibrary@alexandrina.sa.gov.au","COMMENT_":"NULL","WEBSITE":"http:\/\/www.alexandrina.sa.gov.au","longitude":"138.90115800","NAME":"Strathalbyn School Community Library"},
{"address":"Dukes Hwy, Coomandook  5261","BRANCHADDRESS":"NULL","HOURS":"School terms: Mon - Thurs 8.30am - 4.15pm, Fri 8.30am - 4pm School holidays: Tues - Thurs 9.30am - 4.30pm","OBJECTID_1":"154","latitude":"-35.46479500","PHONE":"8573 3196","COUNCIL_NAME":"Coorong Dc","EMAIL":"coomandook.library@plain.sa.gov.au","COMMENT_":"NULL","WEBSITE":"http:\/\/www.coomyas.sa.edu.au\/library","longitude":"139.67280900","NAME":"Coomandook School Community Library"},
{"address":"1 North Tce, Meningie  5264","BRANCHADDRESS":"NULL","HOURS":"School terms: Mon 9am - 4.30pm, Tues - Fri 9am - 5.30pm, Sat 10am - 1pm School holidays: Tues - Fri 10.30am - 1pm, 2pm - 5pm, Sat 10am - 1pm","OBJECTID_1":"155","latitude":"-35.68405600","PHONE":"8575 1106","COUNCIL_NAME":"Coorong Dc","EMAIL":"NULL","COMMENT_":"NULL","WEBSITE":"http:\/\/www.libraries.sa.gov.au","longitude":"139.34093800","NAME":"Meningie School Community Library"},
{"address":"1 Murray St, Tailem Bend  5260","BRANCHADDRESS":"NULL","HOURS":"School terms: Mon, Wed, Fri 9am-5pm Tue, Thur 9am-4pm School holidays: Mon, Wed, Fri 9am-12pm, 2pm -5pm, Tue, Thurs closed ","OBJECTID_1":"156","latitude":"-35.25627700","PHONE":"8572 3266","COUNCIL_NAME":"Coorong Dc","EMAIL":"library@tailembdps.sa.edu.au","COMMENT_":"NULL","WEBSITE":"http:\/\/www.libraries.sa.gov.au","longitude":"139.45561300","NAME":"Tailem Bend School Community Library"},
{"address":"Wendt Tce, Tintinara  5266","BRANCHADDRESS":"NULL","HOURS":"School terms: Mon - Fri 8.30am - 5pm School holidays: Wed - Fri 8.30am - 5pm, closed 1pm - 1.30pm","OBJECTID_1":"157","latitude":"-35.88156900","PHONE":"8757 2120","COUNCIL_NAME":"Coorong Dc","EMAIL":"lawless.wendy@plain.sa.gov.au","COMMENT_":"NULL","WEBSITE":"http:\/\/www.libraries.sa.gov.au","longitude":"140.05724300","NAME":"Tintinara Coonalpyn Community Library"},
{"address":"207 Main Rd, Yankalilla  5203","BRANCHADDRESS":"NULL","HOURS":"School terms: Mon, Tues 8.30am - 4pm, Wed - Fri 8.30am - 5pm, Sat 10am - 4pm, School holidays: Tues - Fri 10am - 4pm, Sat 10am - 4pm, After hours returns available","OBJECTID_1":"158","latitude":"-35.45588600","PHONE":"8558 2043","COUNCIL_NAME":"The Dc Of Yankalilla","EMAIL":"yankalilla.library@plain.sa.gov.au","COMMENT_":"NULL","WEBSITE":"http:\/\/www.libraries.sa.gov.au","longitude":"138.35483400","NAME":"Yankalilla School Community Library"},
{"address":"1 Bay Rd, Victor Harbor  5211","BRANCHADDRESS":"NULL","HOURS":"Mon, Tues, Thurs, Fri 9.30am - 5.30pm, Wed 10am - 6pm, Sat 9am - 12 noon","OBJECTID_1":"159","latitude":"-35.55731900","PHONE":"8551 0730","COUNCIL_NAME":"City Of Victor Harbor","EMAIL":"library@victor.sa.gov.au","COMMENT_":"NULL","WEBSITE":"http:\/\/www.victor.sa.gov.au","longitude":"138.61177100","NAME":"Victor Harbor Public Library"},
{"address":"Dauncey St, Kingscote  5223","BRANCHADDRESS":"Penneshaw Annex - Penneshaw Campus of KICE, Hogg Bay Rd, Penneshaw 5220 Tel. 8553 1067","HOURS":"Mon - Fri 9am - 5pm, Sat 9am - 12 noon Penneshaw: Tues, Thurs 10am - 12 noon, Wed 12 noon - 2pm","OBJECTID_1":"160","latitude":"-35.65683700","PHONE":"8553 4516","COUNCIL_NAME":"Kangaroo Island Council","EMAIL":"library@kicouncil.sa.gov.au","COMMENT_":"NULL","WEBSITE":"http:\/\/www.kangarooisland.sa.gov.au","longitude":"137.63813900","NAME":"Kangaroo Island Library Service"},
{"address":"Penneshaw Campus of KICE, Hogg Bay Rd, Penneshaw 5220","BRANCHADDRESS":"NULL","HOURS":"NULL","OBJECTID_1":"161","latitude":"-35.72010200","PHONE":"08 8553 1067","COUNCIL_NAME":"Kangaroo Island Council","EMAIL":"library@kicouncil.sa.gov.au","COMMENT_":"NULL","WEBSITE":"http:\/\/www.kangarooisland.sa.gov.au\/goto\/library","longitude":"137.93227700","NAME":"Kangaroo Island Library - Penneshaw Annex"},
{"address":"55 Woolshed St, Bordertown  5268","BRANCHADDRESS":"NULL","HOURS":"Mon 9.30am - 5.30pm, Tues 9.30am - 5.30pm, Wed 9.30am - 6pm, Thurs 9.30am - 6pm, Fri 9.30am - 5.30pm, Sat 9.30am - 11.30am","OBJECTID_1":"162","latitude":"-36.31090700","PHONE":"8752 1473","COUNCIL_NAME":"Tatiara Dc","EMAIL":"NULL","COMMENT_":"NULL","WEBSITE":"http:\/\/www.tatiara.sa.gov.au","longitude":"140.77358800","NAME":"Bordertown Public Library"},
{"address":"Tolmer Tce, Keith  5267","BRANCHADDRESS":"NULL","HOURS":"School terms: Mon 8.30am - 3.15pm, Tues - Fri 8.30am - 4.30pm, Sat 9.30am - 12 noon School holidays: Tues - Fri 9.30am - 12.30pm, 1.30pm - 4.30pm, Sat 9.30am - 12 noon","OBJECTID_1":"163","latitude":"-36.09942600","PHONE":"8755 3236","COUNCIL_NAME":"Tatiara Dc","EMAIL":"library@keithas.sa.edu.au","COMMENT_":"NULL","WEBSITE":"http:\/\/www.libraries.sa.gov.au","longitude":"140.35312800","NAME":"Keith School Community Library"},
{"address":"46 East Tce, Kingston  5275","BRANCHADDRESS":"NULL","HOURS":"School terms: Mon, Wed, Fri 9am - 5pm, Tues, Thurs 9am - 6pm, Sat 9.30am - 12.30pm School holidays: Wed, Fri 9.30am - 1pm, 2pm - 5pm, Tues, Thurs 9.30am - 1pm, 2pm - 6pm, Sat 9.30am - 12.30pm","OBJECTID_1":"164","latitude":"-36.83741700","PHONE":"8767 2677","COUNCIL_NAME":"Kingston Dc","EMAIL":"library@wattlerange.sa.gov.au","COMMENT_":"NULL","WEBSITE":"http:\/\/www.kingstonlibrary.com.au","longitude":"139.85566500","NAME":"Kingston School Community Library"},
{"address":"Gum Ave, Lucindale  5272","BRANCHADDRESS":"NULL","HOURS":"School terms: Mon, Tues, Fri 9am - 4pm, Wed, Thurs 9am - 5pm, Sat 9am - 11.30am School holidays: Tues 9am - 12 noon & 1pm - 4pm, Thurs 9am - 12.30pm & 1pm - 5pm, Fri 9am - 12 noon & 1pm - 3.30pm, Sat 9am - 11.30am","OBJECTID_1":"165","latitude":"-36.97123900","PHONE":"8766 2084","COUNCIL_NAME":"Naracoorte Lucindale Council","EMAIL":"NULL","COMMENT_":"NULL","WEBSITE":"http:\/\/www.libraries.sa.gov.au","longitude":"140.36966300","NAME":"Lucindale School Community Library"},
{"address":"De Garis Pl, Naracoorte  5271","BRANCHADDRESS":"NULL","HOURS":"Mon - Wed, Fri 8.30am - 5.30pm, Thurs 8.30am - 8pm, Sat 8.30am - 12 noon","OBJECTID_1":"166","latitude":"-36.95621500","PHONE":"8762 2338","COUNCIL_NAME":"Naracoorte Lucindale Council","EMAIL":"NULL","COMMENT_":"NULL","WEBSITE":"http:\/\/www.naracoortelucindale.sa.gov.au\/site\/page.cfm?u=108","longitude":"140.74142100","NAME":"Naracoorte Public Library"},
{"address":"Mundy Tce, Robe  5276","BRANCHADDRESS":"NULL","HOURS":"Mon - Fri 9am - 5pm Sat, Sun 10am - 4pm Public holidays 10am - 1pm","OBJECTID_1":"167","latitude":"-37.16247000","PHONE":"8768 2465","COUNCIL_NAME":"Dc Of Robe","EMAIL":"robelibrary@plain.sa.gov.au","COMMENT_":"Co-located with Robe Visitor Information Centre","WEBSITE":"http:\/\/www.council.robe.sa.gov.au","longitude":"139.75479700","NAME":"Robe Public Library"},
{"address":"Ridge Tce, Millicent  5280","BRANCHADDRESS":"Kalangadoo - Kalangadoo Primary School, Millicent Rd, Kalangadoo 5278 Hours: Tues 3pm - 5pm, Sat 9.30am - 11.30am Nangwarry - Nangwarry Primary School, Whitford Cres, Nangwarry 5277 Hours: Wed, Fri 10am - 12 noon","HOURS":"Tues, Fri 9am - 5.30pm, 6.30pm - 8.30pm, Wed, Thurs 9am - 5.30pm, Sat 9am - 12 noon","OBJECTID_1":"168","latitude":"-37.59434600","PHONE":"8733 0903","COUNCIL_NAME":"Wattle Range Council","EMAIL":"library@wattlerange.sa.gov.au","COMMENT_":"NULL","WEBSITE":"http:\/\/www.wattlerange.sa.gov.au","longitude":"140.34628600","NAME":"Millicent Public Library"},
{"address":"43 Cameron St, Penola  5277","BRANCHADDRESS":"NULL","HOURS":"School terms: Mon, Wed - Fri 8.30am - 4pm, Tues 8.30am - 7pm, Sat 9.30am - 12 noon Closed for lunch 1pm - 2pm, closed on public holidays School holidays: Tues 10am - 8pm, Wed - Fri 9am - 4pm, Sat 9.30am - 12 noon","OBJECTID_1":"169","latitude":"-37.37369200","PHONE":"8737 2838","COUNCIL_NAME":"Wattle Range Council","EMAIL":"NULL","COMMENT_":"NULL","WEBSITE":"http:\/\/www.wattlerange.sa.gov.au","longitude":"140.84388000","NAME":"Penola School Community Library"},
{"address":"6 Watson Tce, Mount Gambier  5290","BRANCHADDRESS":"NULL","HOURS":"Mon - Fri 9am - 6pm, Sat, Sun 10am - 4pm","OBJECTID_1":"170","latitude":"-37.82958100","PHONE":"8721 2540","COUNCIL_NAME":"City Of Mount Gambier","EMAIL":"publiclibrary@mountgambier.sa.gov.au","COMMENT_":"NULL","WEBSITE":"http:\/\/www.mountgambier.sa.gov.au\/library","longitude":"140.78084400","NAME":"Mount Gambier Public Library"},
{"address":"Government Rd, Andamooka  5722","BRANCHADDRESS":"NULL","HOURS":"NULL","OBJECTID_1":"171","latitude":"-30.44986500","PHONE":"8672 7113","COUNCIL_NAME":"NULL","EMAIL":"NULL","COMMENT_":"NULL","WEBSITE":"http:\/\/www.libraries.sa.gov.au","longitude":"137.16354700","NAME":"Andamooka School Community Library"},
{"address":"Blackoak Dr, Leigh Creek  5731","BRANCHADDRESS":"NULL","HOURS":"School terms: Mon 8.30am - 4pm, Tues, Fri 8.30am - 4.30pm, 7pm - 9pm, Wed, Thurs 8.30am - 4.30pm, Sat 9am - 12 noon School holidays: Tues 12 noon - 4.30pm & 7pm - 9pm, Wed 9am - 1pm, Thurs 12 noon - 4.30pm, Fri 12 noon - 4.30pm & 7pm - 9pm, Sat 9am - 12pm","OBJECTID_1":"172","latitude":"-30.59234900","PHONE":"8675 2803","COUNCIL_NAME":"NULL","EMAIL":"NULL","COMMENT_":"NULL","WEBSITE":"http:\/\/www.libraries.sa.gov.au","longitude":"138.40128400","NAME":"Leigh Creek School Community Library"},
{"address":"Woomera Area School, Dewrang Ave, Woomera  5720","BRANCHADDRESS":"NULL","HOURS":"School terms: Mon 12.30pm - 5.30pm, 7pm - 9pm, Tues, Wed 12.30pm - 5.30pm, Thurs, Fri 12.30pm - 4.30pm School holidays: Mon 12.30pm - 4.30pm, 7pm - 9pm, Tues - Fri 12.30pm - 4.30pm","OBJECTID_1":"173","latitude":"-31.19946000","PHONE":"8673 7287","COUNCIL_NAME":"NULL","EMAIL":"community.library@woomera.sa.edu.au","COMMENT_":"NULL","WEBSITE":"http:\/\/www.woomera.sa.edu.au","longitude":"136.82547100","NAME":"Woomera Community Library"},
{"address":"Fourth St, Owen","BRANCHADDRESS":"Located at Owen Primary","HOURS":"Contact Council","OBJECTID_1":"174","latitude":"-34.27169359","PHONE":"8528 6116","COUNCIL_NAME":"Wakefield Regional Council","EMAIL":"NULL","COMMENT_":"NULL","WEBSITE":"http:\/\/www.wakefieldrc.sa.gov.au","longitude":"138.54277231","NAME":"Owen Community Library"},
]