{"address":"179 West Tce","latitude":"-34.93464","name":"Elephant & Castle Hotel","longitude":"138.58872"}{"address":"437 Pulteney St","latitude":"-34.93386","name":"Astor Hotel","longitude":"138.60607"}{"address":"247 Gouger St","latitude":"-34.93106","name":"Directors Hotel","longitude":"138.5901"}{"address":"Terrace Level Myer Centre 175 North Tce","latitude":"-34.921822","name":"London Tavern The","longitude":"138.600737"}{"address":"317 Morphett St","latitude":"-34.931694","name":"Whitmore Hotel","longitude":"138.593792"}{"address":"254 Wright St","latitude":"-34.93181","name":"Prince Albert Hotel","longitude":"138.59062"}{"address":"19 Peel St","latitude":"-34.92369","name":"Clever Little Tailor","longitude":"138.598121"}{"address":"57 Flinders St","latitude":"-34.92727","name":"Strata Bar","longitude":"138.60273"}{"address":"125 Hindley St","latitude":"-34.92345","name":"The Dog & Duck Ale House","longitude":"138.59489"}{"address":"46 Grote St","latitude":"-34.92871","name":"Metropolitan Hotel","longitude":"138.5974"}{"address":"88 GILBERT St","latitude":"-34.93423","name":"GILBERT STREET HOTEL","longitude":"138.59708"}{"address":"92 Franklin St","latitude":"-34.92712","name":"The Franklin Hotel","longitude":"138.595736"}{"address":"150 North Tce","latitude":"-34.92204","name":"Swish On Terrace","longitude":"138.59848"}{"address":"129 North Tce","latitude":"-34.922","name":"Strathmore Hotel","longitude":"138.59695"}{"address":"18 Coromandel Pl","latitude":"-34.9249","name":"Historian Hotel","longitude":"138.60251"}{"address":"76 Wakefield St","latitude":"-34.92809","name":"The Wakefield Hotel","longitude":"138.60345"}{"address":"357 King William St","latitude":"-34.932717","name":"Kings Head Hotel","longitude":"138.599727"}{"address":"299 Rundle St","latitude":"-34.92267","name":"Stag Hotel","longitude":"138.610592"}{"address":"17 Hindley St","latitude":"-34.92329","name":"Tattersalls Hotel And Backpackers","longitude":"138.59865"}{"address":"233 Victoria Sq","latitude":"-34.92","name":"The Collins Bar","longitude":"138.59"}{"address":"Grnd Level Station Rd","latitude":"-34.92","name":"Express Bar","longitude":"138.59"}{"address":"Level 1 Station Rd","latitude":"-34.92","name":"Balcony Bar","longitude":"138.59"}{"address":"Grnd Level Station Rd","latitude":"-34.92","name":"Loco","longitude":"138.59"}{"address":"Level 1 Station Rd","latitude":"-34.92","name":"Grandstand Bar","longitude":"138.59"}{"address":"162 Hutt St","latitude":"-34.93107","name":"Havelock Hotel","longitude":"138.61265"}{"address":"316 Pulteney St","latitude":"-34.93102","name":"Coopers Alehouse @ The Earl","longitude":"138.60656"}{"address":"255 Hindley St","latitude":"-34.92384","name":"West End Tavern","longitude":"138.58996"}{"address":"233 Franklin St","latitude":"-34.92792","name":"Benjamin On Franklin Hotel","longitude":"138.59039"}{"address":"233 Currie St","latitude":"-34.92516","name":"Edinburgh Castle Hotel","longitude":"138.58935"}{"address":"111a Hindley St","latitude":"-34.92349","name":"Red Square Bar & Lounge","longitude":"138.59528"}{"address":"Market Plaza Gouger St","latitude":"-34.929808","name":"Aces Bar & Bistro","longitude":"138.597104"}{"address":"109 Waymouth St","latitude":"-34.926188","name":"The Marble Bar","longitude":"138.595666"}{"address":"20 Vaughan Pl","latitude":"-34.92202","name":"The Elephant","longitude":"138.60913"}{"address":"128 Grote St","latitude":"-34.92","name":"Bacchus Karaoke Bar","longitude":"138.59"}{"address":"235 Grenfell St","latitude":"-34.92418","name":"Electric Light Hotel & Producers Bar","longitude":"138.60995"}{"address":"94- 100 Hindley St","latitude":"-34.922919","name":"Woolshed On Hindley","longitude":"138.595785"}{"address":"12- 14 Grenfell St","latitude":"-34.92431","name":"Silks On Grenfell Hotel","longitude":"138.60024"}{"address":"North Tce,","latitude":"-34.92117","name":"SKYCITY Adelaide","longitude":"138.596357"}{"address":"150 North Tce","latitude":"-34.92204","name":"Cascades Cocktail Lounge","longitude":"138.59848"}{"address":"229 Rundle St","latitude":"-34.922774","name":"Stag Hotel","longitude":"138.608183"}{"address":"196 Grenfell St","latitude":"-34.923656","name":"Crown & Anchor","longitude":"138.608419"}{"address":"Regent Arcade 110 Grenfell St","latitude":"-34.92371","name":"Grenfell 110","longitude":"138.60347"}{"address":"401 King William St","latitude":"-34.934551","name":"Brecknock Hotel","longitude":"138.599991"}{"address":"Embassy Hotel, 92 North Tce,","latitude":"-34.921862","name":"Bar Rouge","longitude":"138.59426"}{"address":"27- 29 Ebenezer Pl","latitude":"-34.922494","name":"Belgian Beer Cafe Oostende","longitude":"138.609398"}{"address":"316 Pulteney St","latitude":"-34.93102","name":"Earl Of Aberdeen Hotel","longitude":"138.60656"}{"address":"63 Light Sq","latitude":"-34.925573","name":"Live On Light","longitude":"138.592535"}{"address":"38 Hindmarsh Sq","latitude":"-34.92381","name":"Griffins Head Hotel","longitude":"138.60665"}{"address":"116 Flinders St","latitude":"-34.92","name":"Second Floor Lounge","longitude":"138.6"}{"address":"North Tce","latitude":"-34.92","name":"Atrium Lounge - Hyatt Regency Adelaide","longitude":"138.6"}{"address":"120 North Tce","latitude":"-34.922172","name":"The Playford Lounge Bar","longitude":"138.596237"}{"address":"Cnr of George and Albert St 39 George St","latitude":"-34.91896","name":"Wheatsheaf Hotel","longitude":"138.57559"}{"address":"85 Leicester St","latitude":"-34.94625","name":"Earl Of Leicester Hotel","longitude":"138.61449"}{"address":"106 O'Connell St","latitude":"-34.905619","name":"Cambridge Balcony Bar","longitude":"138.59619"}{"address":"75 Goodwood Rd","latitude":"-34.94842","name":"Goodwood Park Hotel","longitude":"138.58976"}{"address":"30 Henley Beach Rd","latitude":"-34.92306","name":"Mile End Hotel","longitude":"138.57583"}{"address":"39 George St","latitude":"-34.91896","name":"Wheatsheaf Hotel","longitude":"138.57559"}{"address":"85 Leicester St","latitude":"-34.94625","name":"Leicester Hotel","longitude":"138.61449"}{"address":"7 O'Connell St","latitude":"-34.909231","name":"O Hotel","longitude":"138.596217"}{"address":"58 Finniss St","latitude":"-34.90976","name":"British Hotel","longitude":"138.60484"}{"address":"1 Magill Rd","latitude":"-34.91543","name":"Maid & Magpie","longitude":"138.62326"}{"address":"44 The Parade","latitude":"-34.92196","name":"Colonist Tavern The","longitude":"138.62736"}{"address":"101 O'Connell St","latitude":"-34.90587","name":"Oxford Hotel","longitude":"138.595273"}{"address":"95 Hackney Rd","latitude":"-34.910308","name":"Hackney Hotel","longitude":"138.613501"}{"address":"66 Magill Rd","latitude":"-34.915791","name":"Alma Tavern","longitude":"138.627374"}{"address":"45 Kermode St","latitude":"-34.91223","name":"Cathedral Hotel","longitude":"138.59902"}{"address":"117 Kermode St","latitude":"-34.91182","name":"Queen's Head Hotel","longitude":"138.59649"}{"address":"2 North Tce","latitude":"-34.91947","name":"Royal Hotel Kent Town","longitude":"138.6153"}{"address":"27 Unley Rd","latitude":"-34.94316","name":"Unley On Clyde The","longitude":"138.60722"}{"address":"27 Unley Rd","latitude":"-34.94316","name":"Boho","longitude":"138.60722"}{"address":"77 Port Rd","latitude":"-34.91348","name":"Southwark Hotel","longitude":"138.57777"}{"address":"5 First St","latitude":"-34.90255","name":"Brompton Hotel","longitude":"138.572046"}{"address":"540 Port Rd","latitude":"-34.89523","name":"Tavern 540","longitude":"138.55592"}{"address":"Cnr South Rd & Sir Donald Bradman Drv","latitude":"-34.93158","name":"Hilton Hotel","longitude":"138.56977"}{"address":"150 Glen Osmond Rd","latitude":"-34.94708","name":"Arkaba Hotel","longitude":"138.62586"}{"address":"142 Glen Osmond Rd","latitude":"-34.94615","name":"Fountain Inn Hotel","longitude":"138.62421"}{"address":"126 Port Rd","latitude":"-34.906699","name":"The Lady Daly Hotel","longitude":"138.573078"}{"address":"Cnr Hawker & Coglin Sts","latitude":"-34.896169","name":"Excelsior Hotel","longitude":"138.57534"}{"address":"95 Prospect Rd","latitude":"-34.88","name":"Wassail Wine Bar","longitude":"138.59"}{"address":"95 Belair Rd","latitude":"-34.974107","name":"The Torrens Arms","longitude":"138.610048"}{"address":"23 Regent St","latitude":"-34.9216","name":"Kensington Hotel","longitude":"138.64561"}{"address":"180 Henley Beach Rd","latitude":"-34.923561","name":"Hotel Royal","longitude":"138.560381"}{"address":"348 Port Rd","latitude":"-34.90231","name":"Hope Inn Hotel","longitude":"138.56715"}{"address":"232 The Pde","latitude":"-34.92135","name":"Bath Hotel","longitude":"138.63907"}{"address":"172 Port Rd","latitude":"-34.90596","name":"Land Of Promise Hotel","longitude":"138.57197"}{"address":"Ashwin Pde","latitude":"-34.914553335221","name":"Beergarden @ The Brickworks","longitude":"138.559772230801"}{"address":"68 Walkerville Tce","latitude":"-34.89743","name":"Sussex Hotel","longitude":"138.61512"}{"address":"9 Manton St","latitude":"-34.90793","name":"The Joiners Arms","longitude":"138.57177"}{"address":"319 Payneham Rd","latitude":"-34.89872","name":"Payneham Tavern","longitude":"138.63646"}{"address":"172 Port Rd","latitude":"-34.90596","name":"The Land Of Promise Hotel","longitude":"138.57197"}{"address":"239 Kensington Rd","latitude":"-34.92616","name":"Marryatville Hotel","longitude":"138.64989"}{"address":"95 Belair Rd","latitude":"-34.97411","name":"Torrens Arms Hotel","longitude":"138.61005"}{"address":"187 King William Rd","latitude":"-34.95548","name":"Hyde Park Tavern","longitude":"138.60033"}{"address":"207 Unley Rd","latitude":"-34.95342","name":"Cremorne Hotel","longitude":"138.60826"}{"address":"315 Portrush Rd","latitude":"-34.92577","name":"Robin Hood Hotel","longitude":"138.64103"}{"address":"143 North East Rd","latitude":"-34.88427","name":"Hampstead Hotel","longitude":"138.61956"}{"address":"106 Payneham Rd","latitude":"-34.90978","name":"Avenues Tavern","longitude":"138.62802"}{"address":"Cnr Hawker & Coglin Sts Brompton","latitude":"-34.896169","name":"Excelsior Hotel","longitude":"138.57534"}{"address":"Suite 2\/ 32 West Thebarton Rd","latitude":"-34.91365","name":"Roaring Lion Energy Drink","longitude":"138.56895"}{"address":"36 Chief St","latitude":"-34.90194","name":"Gaslight Tavern","longitude":"138.57531"}{"address":"373 Glen Osmond Rd","latitude":"-34.96","name":"Korean Charcoal BBQ","longitude":"138.64"}{"address":"29 Torrens Rd","latitude":"-34.898104","name":"Bombay Bicycle Club","longitude":"138.585235"}{"address":"1\/ 59 Pennington Tce","latitude":"-34.912814","name":"Vegas Promotions Pty Ltd","longitude":"138.596231"}{"address":"161 Melbourne St","latitude":"-34.907829","name":"The Lion Hotel","longitude":"138.60594"}{"address":"14 East Tce","latitude":"-34.92214","name":"P.J.O'Brien's Irish Pub","longitude":"138.61049"}{"address":"88 GILBERT St","latitude":"-34.93423","name":"GILBERT STREET HOTEL","longitude":"138.59708"}{"address":"18 Currie St","latitude":"-34.924159","name":"Hotel Grand Chancellor Adelaide on Currie","longitude":"138.598882"}{"address":"141 Currie St","latitude":"-34.92502","name":"Colonel Light Hotel","longitude":"138.59267"}{"address":"233 Franklin St","latitude":"-34.92792","name":"Benjamin On Franklin Hotel","longitude":"138.59039"}{"address":"265 Pirie St","latitude":"-34.9255","name":"Hotel Tivoli","longitude":"138.60967"}{"address":"129 North Tce","latitude":"-34.921998","name":"Strathmore Hotel","longitude":"138.596951"}{"address":"104 Gouger St","latitude":"-34.92999","name":"Talbot Hotel","longitude":"138.595483"}{"address":"205 Rundle St","latitude":"-34.92285","name":"Austral Hotel\/Bunka Restaurant","longitude":"138.60737"}{"address":"70 Waymouth St","latitude":"-34.925682","name":"Union Hotel","longitude":"138.597319"}{"address":"88 Wright St","latitude":"-34.931446","name":"Hotel Wright Street","longitude":"138.597047"}{"address":"128 Rundle Mall","latitude":"-34.92242","name":"First At Hotel Richmond","longitude":"138.60422"}{"address":"316 Pulteney St","latitude":"-34.93102","name":"Earl Of Aberdeen Hotel","longitude":"138.60656"}{"address":"58 Finniss St","latitude":"-34.90976","name":"British Hotel","longitude":"138.60484"}{"address":"1 Walkerville Tce","latitude":"-34.9012","name":"Buckingham Arms Hotel","longitude":"138.60953"}{"address":"160 O'Connell St","latitude":"-34.903981","name":"Quality Hotel Old Adelaide","longitude":"138.595828"}{"address":"95 Hackney Rd","latitude":"-34.91031","name":"Hackney Hotel","longitude":"138.6135"}{"address":"76 Rundle St","latitude":"-34.920024","name":"Kent Town Hotel","longitude":"138.620474"}{"address":"123 O'Connell St","latitude":"-34.905314","name":"Royal Oak Hotel","longitude":"138.594801"}{"address":"63 Melbourne St","latitude":"-34.90642","name":"Lord Melbourne Hotel","longitude":"138.60908"}{"address":"219 O'Connell St","latitude":"-34.902314","name":"Barton's At The Caledonian Hotel","longitude":"138.593995"}{"address":"23 Stanley St","latitude":"-34.904678","name":"Kentish Arms Hotel","longitude":"138.6092"}{"address":"55 Frome St","latitude":"-34.922803","name":"Majestic Roof Garden Hotel","longitude":"138.607768"}{"address":"Level 7, Majestic Roof Garden Hotel, 55 Frome St,","latitude":"-34.922803","name":"Majestic Roof Garden Hotel - Nandina Function Rooms","longitude":"138.607768"}{"address":"15 Hindley St","latitude":"-34.923356","name":"Golden Chain Adelaide Paringa","longitude":"138.598812"}{"address":"Ground Floor, Majestic Roof Garden Hotel, 55 Frome St","latitude":"-34.922803","name":"Majestic Roof Garden Hotel - Nandina Function Rooms","longitude":"138.607768"}{"address":"128 Rundle Mall","latitude":"-34.92242","name":"Hotel Richmond","longitude":"138.60422"}{"address":"437 Pulteney St","latitude":"-34.933861","name":"Astor Hotel","longitude":"138.606066"}{"address":"223 Wakefield St","latitude":"-34.92866","name":"Adabco Boutique Hotel","longitude":"138.60906"}{"address":"45 King William St","latitude":"-34.923302","name":"Mayfair Hotel","longitude":"138.599082"}{"address":"85 Hindley St","latitude":"-34.92358","name":"Plaza Hotel","longitude":"138.59633"}{"address":"128 Rundle Mall","latitude":"-34.92242","name":"Hotel Richmond","longitude":"138.60422"}{"address":"123 Waymouth St","latitude":"-34.92625","name":"Adelaide's Shakespeare Backpackers International Hostel","longitude":"138.5952"}{"address":"125 North Tce","latitude":"-34.92217","name":"Mercure Grosvenor Hotel","longitude":"138.59657"}{"address":"125 North Tce","latitude":"-34.92217","name":"Mercure Grosvenor Hotel","longitude":"138.59657"}{"address":"243 Carrington St","latitude":"-34.93129","name":"Steele & Associates Hotel Brokers","longitude":"138.609324"}{"address":"14 East Tce","latitude":"-34.92214","name":"P.J.O'Brien's Irish Pub","longitude":"138.61049"}{"address":"46 Grote St","latitude":"-34.92871","name":"Metropolitan Hotel","longitude":"138.5974"}{"address":"187 Angas St","latitude":"-34.93","name":"Seven Stars Hotel","longitude":"138.60801"}{"address":"264 Flinders St","latitude":"-34.92637","name":"Clarion Hotel Soho","longitude":"138.61037"}{"address":"265 Pirie St","latitude":"-34.925496","name":"Hotel Tivoli","longitude":"138.609669"}{"address":"265 Pirie St","latitude":"-34.9255","name":"Hotel Tivoli","longitude":"138.60967"}{"address":"31- 34 North Tce","latitude":"-34.91845","name":"Comfort Hotel Adelaide Riviera","longitude":"138.61662"}{"address":"31-34 North Tce","latitude":"-34.922352","name":"Comfort Hotel Adelaide Riviera","longitude":"138.58986"}{"address":"55 Waymouth St","latitude":"-34.9261","name":"Rendezvous Grand Hotel Adelaide","longitude":"138.59745"}{"address":"92 Franklin St","latitude":"-34.92712","name":"The Franklin Hotel","longitude":"138.595736"}{"address":"106 Halifax St","latitude":"-34.93213","name":"Rob Roy Hotel","longitude":"138.60423"}{"address":"76 Wakefield St","latitude":"-34.92809","name":"The Wakefield Hotel","longitude":"138.60345"}{"address":"129 North Tce","latitude":"-34.922","name":"Strathmore Hotel","longitude":"138.59695"}{"address":"160 Hindley St","latitude":"-34.923092","name":"Rosemont Hotel & Pokies","longitude":"138.593799"}{"address":"Cnr Morphett & Hindley Sts","latitude":"-34.92312","name":"Adelaide Rockford Hotel","longitude":"138.59284"}{"address":"205 Rundle St","latitude":"-34.92285","name":"Austral Hotel\/Bunka Restaurant","longitude":"138.60737"}{"address":"226 South Tce","latitude":"-34.935009","name":"Adelaide Chifley Hotel","longitude":"138.605614"}{"address":"243 Carrington St","latitude":"-34.93129","name":"Steele & Associates Hotel Brokers","longitude":"138.609324"}{"address":"400 King William St","latitude":"-34.933786","name":"Diploma Travel","longitude":"138.600713"}{"address":"162 Hutt St","latitude":"-34.93107","name":"Havelock Hotel","longitude":"138.61265"}{"address":"179 West Tce","latitude":"-34.93464","name":"Elephant & Castle Hotel","longitude":"138.58872"}{"address":"246 Rundle St","latitude":"-34.92232","name":"Exeter Hotel","longitude":"138.60877"}{"address":"160 Hindley St","latitude":"-34.923092","name":"Sports Bar Rosemont Hotel","longitude":"138.593799"}{"address":"175 North Tce","latitude":"-34.921822","name":"London Tavern The","longitude":"138.600737"}{"address":"2 Flinders St","latitude":"-34.926685","name":"Adina Apartment Hotel Adelaide Treasury","longitude":"138.600904"}{"address":"76 Wakefield St","latitude":"-34.92809","name":"Wakefield Hotel The","longitude":"138.60345"}{"address":"55 Waymouth St","latitude":"-34.9261","name":"Rendezvous Allegra Hotel Adelaide","longitude":"138.59745"}{"address":"55 Waymouth St","latitude":"-34.9261","name":"Rendezvous Allegra Hotel Adelaide","longitude":"138.59745"}{"address":"437 Pulteney St","latitude":"-34.93386","name":"Astor Hotel","longitude":"138.60607"}{"address":"70 Waymouth St","latitude":"-34.925682","name":"Union Hotel","longitude":"138.597319"}{"address":"55 Frome St","latitude":"-34.92307","name":"Majestic Roof Garden Hotel - Nandina Function Rooms","longitude":"138.607969"}{"address":"55 Waymouth St","latitude":"-34.9261","name":"Rendezvous Allegra Hotel Adelaide","longitude":"138.59745"}{"address":"235 Grenfell St","latitude":"-34.92418","name":"Electric Light Hotel & Producers Bar","longitude":"138.60995"}{"address":"208 Hindley St","latitude":"-34.9232","name":"Worldsend Hotel.","longitude":"138.59166"}{"address":"55 Waymouth St","latitude":"-34.9261","name":"Rendezvous Allegra Hotel Adelaide","longitude":"138.59745"}{"address":"128 Rundle Mall","latitude":"-34.92242","name":"Hotel Richmond","longitude":"138.60422"}{"address":"246 Rundle St","latitude":"-34.92232","name":"Exeter Hotel","longitude":"138.60877"}{"address":"17 Hindley St","latitude":"-34.923288","name":"Tattersalls Hotel","longitude":"138.598649"}{"address":"317 Morphett St","latitude":"-34.931694","name":"Whitmore Hotel The","longitude":"138.593792"}{"address":"196 Grenfell St","latitude":"-34.923656","name":"Crown and Anchor Hotel","longitude":"138.608419"}{"address":"162 Hutt St","latitude":"-34.93107","name":"GENERAL HAVELOCK HOTEL","longitude":"138.612652"}{"address":"246 Rundle St","latitude":"-34.922317","name":"Exeter Hotel (Rundle St)","longitude":"138.608765"}{"address":"21 Pulteney St","latitude":"-34.92201","name":"Mansions Tavern","longitude":"138.605184"}{"address":"92 Franklin St","latitude":"-34.92712","name":"Franklin Hotel","longitude":"138.595736"}{"address":"Lvl 5\/ 18 Grenfell St","latitude":"-34.924078","name":"Hotel Dynamics Pty Ltd","longitude":"138.600481"}{"address":"12- 18 Currie St","latitude":"-34.924159","name":"Hotel Grand Chancellor Adelaide on Currie","longitude":"138.598882"}{"address":"Stag Hotel","latitude":"-34.928605","name":"Stag Hotel, The","longitude":"138.601685"}{"address":"353-357 King William St","latitude":"-34.932678","name":"Kings Hotel The","longitude":"138.599868"}{"address":"208 Hindley St","latitude":"-34.923198","name":"Worldsend Hotel","longitude":"138.591657"}{"address":"65 Hindley St","latitude":"-34.92364","name":"Hotel Grand Chancellor Adelaide On Hindley","longitude":"138.596827"}{"address":"207 Gilbert St","latitude":"-34.934938","name":"The Duke Of Brunswick Hotel (The Brunswick)","longitude":"138.592436"}{"address":"253 Hindley St","latitude":"-34.923835","name":"West End Tavern","longitude":"138.589962"}{"address":"205 Rundle St","latitude":"-34.922851","name":"Austral Hotel","longitude":"138.607371"}{"address":"82 Carrington St","latitude":"-34.931135","name":"Saracens Head Hotel","longitude":"138.603404"}{"address":"308 King William St","latitude":"-34.93105","name":"Crown & Sceptre Hotel","longitude":"138.600515"}{"address":"141 Currie St","latitude":"-34.92502","name":"Light Hotel","longitude":"138.592673"}{"address":"14 Grenfell St","latitude":"-34.923976","name":"Silks On Grenfell Hotel","longitude":"138.600299"}{"address":"241 Hutt St","latitude":"-34.933932","name":"Arab Steed Hotel","longitude":"138.612182"}{"address":"East End","latitude":"-34.9238631","name":"The Elephant - British Pub","longitude":"138.6109011"}{"address":"East End","latitude":"-34.9238631","name":"The Elephant - British Pub","longitude":"138.6109011"}{"address":"14 East Tce","latitude":"-34.922139","name":"P.J. O'Brien's Irish Pub","longitude":"138.610491"}{"address":"125 North Tce","latitude":"-34.922171","name":"Mercure Grosvenor Hotel Adelaide","longitude":"138.59657"}{"address":"55 Waymouth St","latitude":"-34.926102","name":"Allegra Hotel Pty Ltd","longitude":"138.597448"}{"address":"55 Waymouth St","latitude":"-34.9261","name":"Rendezvous Hotel Adelaide","longitude":"138.59745"}{"address":"205 Waymouth St","latitude":"-34.926419","name":"Cumberland Arms Hotel","longitude":"138.591972"}{"address":"12- 14 Grenfell St","latitude":"-34.92431","name":"Silks On Grenfell Hotel","longitude":"138.60024"}{"address":"21 James Pl","latitude":"-34.92365","name":"Marrakesh Hotel","longitude":"138.60058"}{"address":"1 North Tce","latitude":"-34.92261","name":"Newmarket Hotel","longitude":"138.58786"}{"address":"233 Grenfell St","latitude":"-34.924183","name":"Producers Hotel The","longitude":"138.609827"}{"address":"55 Frome St","latitude":"-34.92307","name":"Majestic Roof Garden Hotel - Nandina Function Rooms","longitude":"138.607969"}{"address":"401 King William St","latitude":"-34.934551","name":"Brecknock Hotel","longitude":"138.599991"}{"address":"1 North Tce","latitude":"-34.92261","name":"Newmarket Hotel","longitude":"138.58786"}{"address":"401 King William St","latitude":"-34.934551","name":"Brecknock Hotel","longitude":"138.599991"}{"address":"96 North Tce","latitude":"-34.92","name":"Embassy Hotel","longitude":"138.59"}{"address":"220 Morphett St","latitude":"-34.928132","name":"Hampshire Hotel","longitude":"138.594191"}{"address":"58 Hindley St","latitude":"-34.922723","name":"Berkeley Hotel","longitude":"138.597244"}{"address":"106 Halifax St","latitude":"-34.93213","name":"Rob Roy Hotel","longitude":"138.60423"}{"address":"82 Hill St","latitude":"-34.907704","name":"North Adelaide Heritage Group","longitude":"138.587282"}{"address":"44 Barton Tce East","latitude":"-34.903461","name":"Golden Chain Regal Park Motor Inn","longitude":"138.596146"}{"address":"161 Melbourne St","latitude":"-34.907829","name":"The Lion Hotel","longitude":"138.60594"}{"address":"146 Melbourne St","latitude":"-34.90732","name":"Majestic Minima Hotel","longitude":"138.60637"}{"address":"146 Melbourne St","latitude":"-34.90732","name":"Majestic Minima Hotel","longitude":"138.60637"}{"address":"21-39 Melbourne St","latitude":"-34.906094","name":"Adelaide Meridien Hotel & Apartments","longitude":"138.609921"}{"address":"146 Melbourne St","latitude":"-34.90732","name":"Majestic Minima Hotel","longitude":"138.60637"}{"address":"176 Greenhill Rd","latitude":"-34.94133","name":"Quality Hotel Tiffins On The Park","longitude":"138.61248"}{"address":"44 Barton Tce East","latitude":"-34.90346","name":"Regal Park Motor Inn","longitude":"138.59615"}{"address":"58 Greenhill Rd","latitude":"-34.94208","name":"Shipway Hotel Motel Brokers","longitude":"138.59327"}{"address":"58 Finniss St","latitude":"-34.90976","name":"British Hotel","longitude":"138.60484"}{"address":"21-39 Melbourne St","latitude":"-34.906094","name":"Adelaide Meridien Hotel & Apartments","longitude":"138.609921"}{"address":"75 Goodwood Rd","latitude":"-34.94842","name":"Goodwood Park Hotel","longitude":"138.58976"}{"address":"39 George St","latitude":"-34.91896","name":"Wheatsheaf Hotel","longitude":"138.57559"}{"address":"219 O'Connell St","latitude":"-34.902314","name":"Caledonian Hotel","longitude":"138.593995"}{"address":"58 Greenhill Rd","latitude":"-34.94208","name":"Shipway Hotel Motel Brokers","longitude":"138.59327"}{"address":"63 Melbourne Street","latitude":"-34.90642","name":"Lord Melbourne Hotel","longitude":"138.60908"}{"address":"66 Magill Rd","latitude":"-34.915791","name":"Alma Tavern","longitude":"138.627374"}{"address":"75 Goodwood Rd","latitude":"-34.94842","name":"Goodwood Park Hotel","longitude":"138.58976"}{"address":"117 Kermode St","latitude":"-34.91182","name":"Queen's Head Hotel","longitude":"138.59649"}{"address":"160 O'Connell St","latitude":"-34.903981","name":"Quality Hotel Old Adelaide","longitude":"138.595828"}{"address":"63 Melbourne St","latitude":"-34.90642","name":"Lord Melbourne Hotel","longitude":"138.60908"}{"address":"39 George St","latitude":"-34.918963","name":"Wheatsheaf Hotel The","longitude":"138.575584"}{"address":"1 Kensington Rd","latitude":"-34.927509","name":"Britannia Hotel Norwood","longitude":"138.623918"}{"address":"3 Tyne Pl","latitude":"-34.947828","name":"British Hotel At North Adelaide Pty Ltd","longitude":"138.602275"}{"address":"60 O'Connell St","latitude":"-34.907056","name":"Archer Hotel","longitude":"138.596573"}{"address":"21 Melbourne St","latitude":"-34.905777","name":"Adelaide Meridien Hotel & Apartments","longitude":"138.610284"}{"address":"1 Magill Rd","latitude":"-34.915429","name":"Maid & Magpie Hotel (The Maid)","longitude":"138.623259"}{"address":"36 Wellington Sq","latitude":"-34.907578","name":"Wellington Hotel","longitude":"138.59278"}{"address":"161 Melbourne St","latitude":"-34.908336","name":"Lion Hotel The","longitude":"138.605813"}{"address":"44 The Parade","latitude":"-34.921958","name":"Colonist Tavern","longitude":"138.627362"}{"address":"75 Goodwood Rd","latitude":"-34.94842","name":"GOODWOOD PARK HOTEL","longitude":"138.58976"}{"address":"76 Rundle St","latitude":"-34.920024","name":"KENT TOWN HOTEL","longitude":"138.620474"}{"address":"165 Tynte St","latitude":"-34.906703","name":"Daniel O'Connell Pub & Dining","longitude":"138.594215"}{"address":"7 O'Connell St","latitude":"-34.909231","name":"O Hotel","longitude":"138.596217"}{"address":"219 O'Connell St","latitude":"-34.902314","name":"Caledonian Hotel","longitude":"138.593995"}{"address":"219 O'Connell St","latitude":"-34.902314","name":"Caledonian Hotel & Barton's Restaurant","longitude":"138.593995"}{"address":"65a The Parade","latitude":"-34.92143","name":"Shipway Hotel Motel Brokers","longitude":"138.62961"}{"address":"101 O'Connell St","latitude":"-34.905836","name":"Oxford Hotel North Adelaide The","longitude":"138.595451"}{"address":"219 OConnell St","latitude":"-34.902314","name":"Caledonian Hotel","longitude":"138.593995"}{"address":"219 O'Connell St","latitude":"-34.902314","name":"Caledonian Hotel & Barton's Restaurant","longitude":"138.593995"}{"address":"1 George St","latitude":"-34.918845","name":"The Forresters & Squatter's Arms Hotel","longitude":"138.578255"}{"address":"PO Box 536","latitude":"-34.920276","name":"Star Entertainment Pty Ltd","longitude":"138.654223"}{"address":"Cnr South Rd & Sir Donald Bradman Drv","latitude":"-34.93158","name":"Hilton Hotel","longitude":"138.56977"}{"address":"540 Port Rd","latitude":"-34.89523","name":"Tavern 540","longitude":"138.55592"}{"address":"540 Port Rd","latitude":"-34.89523","name":"Tavern 540.","longitude":"138.55592"}{"address":"143 North East Rd","latitude":"-34.88427","name":"Hampstead Hotel","longitude":"138.61956"}{"address":"239 Kensington Rd","latitude":"-34.92616","name":"Marryatville Hotel","longitude":"138.64989"}{"address":"23 Regent St","latitude":"-34.9216","name":"Kensington Hotel","longitude":"138.64561"}{"address":"67 Phillis St","latitude":"-34.91025","name":"Maylands Hotel","longitude":"138.63753"}{"address":"172 Richmond Rd","latitude":"-34.94276","name":"Rex Hotel","longitude":"138.5645"}{"address":"Unit 2, 382 South Rd","latitude":"-34.93972","name":"Taverner Hotel Group (Head Office)","longitude":"138.57052"}{"address":"382 South Rd","latitude":"-34.93","name":"Taverner Hotel Group Head Office","longitude":"138.57"}{"address":"10 Jervois St","latitude":"-34.968204","name":"Mayfair Plumbing and Gasfitting - Adelaide's Plumbing Professionals","longitude":"138.602139"}{"address":"493 Portrush Rd","latitude":"-34.946744","name":"Golden Chain Adelaide Granada Motor Inn","longitude":"138.642406"}{"address":"277 Glen Osmond Rd","latitude":"-34.95148","name":"Golden Chain Welcome Inn 277","longitude":"138.634331"}{"address":"17 Jasper St","latitude":"-34.957874","name":"Golden Chain Jasper Motor Inn","longitude":"138.599371"}{"address":"PO Box 27","latitude":"-34.889227","name":"Mr Squeegee","longitude":"138.613372"}{"address":"493 Portrush Rd","latitude":"-34.946744","name":"Adelaide Granada Motor Inn","longitude":"138.642406"}{"address":"133 Richmond Rd","latitude":"-34.94193","name":"The Table & Chair Co.","longitude":"138.56958"}{"address":"277 Glen Osmond Rd","latitude":"-34.951383","name":"Welcome Inn 277","longitude":"138.634318"}{"address":"373 Glen Osmond Rd","latitude":"-34.96048","name":"Jacksons Motor Inn","longitude":"138.64239"}{"address":"5 First St","latitude":"-34.90255","name":"Brompton Hotel","longitude":"138.572046"}{"address":"150 Glen Osmond Rd","latitude":"-34.94708","name":"Arkaba Hotel","longitude":"138.62586"}{"address":"Cnr South Rd & Sir Donald Bradman Drv","latitude":"-34.93158","name":"Hilton Hotel","longitude":"138.56977"}{"address":"264 South Rd","latitude":"-34.931581","name":"Hilton Hotel","longitude":"138.569766"}{"address":"Cnr South Rd & Sir Donald Bradman Drv","latitude":"-34.93158","name":"Hilton Hotel","longitude":"138.56977"}{"address":"36 North East Rd","latitude":"-34.889818","name":"Walkers Arms Hotel","longitude":"138.613436"}{"address":"59 Port Rd","latitude":"-34.90684","name":"Governor Hindmarsh Hotel","longitude":"138.5758"}{"address":"95 Belair Rd","latitude":"-34.97411","name":"Torrens Arms Hotel","longitude":"138.61005"}{"address":"180 Henley Beach Rd","latitude":"-34.923561","name":"Hotel Royal","longitude":"138.560381"}{"address":"187 King William Rd","latitude":"-34.95548","name":"Hyde Park Tavern","longitude":"138.60033"}{"address":"232 The Pde","latitude":"-34.92135","name":"Bath Hotel","longitude":"138.63907"}{"address":"516 Glynburn Rd","latitude":"-34.93765","name":"Feathers Hotel","longitude":"138.66054"}{"address":"150 Glen Osmond Rd","latitude":"-34.94708","name":"Arkaba Hotel Motel","longitude":"138.62586"}{"address":"94 Main North Rd","latitude":"-34.89134","name":"Windmill Hotel","longitude":"138.60237"}{"address":"143 North East Rd","latitude":"-34.88427","name":"Hampstead Hotel","longitude":"138.61956"}{"address":"63 Lambert Rd","latitude":"-34.897204","name":"Nullarbor Hotel Motel Roadhouse Pty Ltd","longitude":"138.625199"}{"address":"239 Kensington Rd","latitude":"-34.926163","name":"Marryatville Hotel","longitude":"138.649888"}{"address":"1 Maclagan Ave","latitude":"-34.89547","name":"Hotel Consultancy Services","longitude":"138.555658"}{"address":"236b The Parade","latitude":"-34.921334","name":"Hair Tavern Men's Hairdressing","longitude":"138.639425"}{"address":"9 Manton St","latitude":"-34.907934","name":"Joiners Arms Hotel The","longitude":"138.571766"}{"address":"232 The Parade","latitude":"-34.921351","name":"Bath Hotel","longitude":"138.639068"}{"address":"236b The Parade","latitude":"-34.92133","name":"Hair Tavern","longitude":"138.63943"}{"address":"231 Sir Donald Bradman Drv","latitude":"-34.93277","name":"Andale Hotel Services","longitude":"138.5571"}{"address":"29 Torrens Rd","latitude":"-34.898104","name":"Ovingham Hotel","longitude":"138.585235"}{"address":"379 South Rd","latitude":"-34.939772","name":"Andale Hotel Services","longitude":"138.57124"}{"address":"4 Carter St","latitude":"-34.8962","name":"Adelaide Myoora Boutqiue Hotel","longitude":"138.59563"}{"address":"Unit 2\/ 382 South Rd","latitude":"-34.93972","name":"Taverner Hotel Group","longitude":"138.57052"}{"address":"120 Magill Rd","latitude":"-34.9157","name":"Oriental Hotel","longitude":"138.631249"}{"address":"Unit 2, 382 South Rd","latitude":"-34.93972","name":"Taverner Hotel Group (Head Office)","longitude":"138.57052"}{"address":"Unit 2, 382 South Rd","latitude":"-34.93972","name":"Taverner Hotel Group (Head Office)","longitude":"138.57052"}{"address":"51 South Rd","latitude":"-34.91479","name":"West Thebarton Hotel The","longitude":"138.56638"}{"address":"Unit 2, 382 South Rd","latitude":"-34.93972","name":"Taverner Hotel Group (Head Office)","longitude":"138.57052"}{"address":"142 Glen Osmond Rd","latitude":"-34.94615","name":"Fountain Inn Hotel","longitude":"138.62421"}{"address":"Suite 3\/ 288 Glen Osmond Rd","latitude":"-34.95433","name":"Langfords Hotel Brokers P\/L","longitude":"138.63604"}{"address":"Unit 2\/ 382 South Rd","latitude":"-34.93972","name":"Taverner Hotel Group","longitude":"138.57052"}{"address":"236b The Parade","latitude":"-34.92133","name":"Hair Tavern","longitude":"138.63943"}{"address":"Unit 2, 382 South Rd","latitude":"-34.93972","name":"Taverner Hotel Group (Head Office)","longitude":"138.57052"}{"address":"51 South Rd","latitude":"-34.91","name":"Bartley Tavern","longitude":"138.56"}{"address":"97 The Parade","latitude":"-34.920974","name":"Norwood Hotel","longitude":"138.632412"}{"address":"120 Magill Rd","latitude":"-34.9157","name":"Oriental Hotel","longitude":"138.631249"}{"address":"Unit 2, 382 South Rd","latitude":"-34.93972","name":"Taverner Hotel Group (Head Office)","longitude":"138.57052"}{"address":"Unit 2, 382 South Rd","latitude":"-34.93972","name":"Taverner Hotel Group (Head Office)","longitude":"138.57052"}{"address":"51 South Rd","latitude":"-34.91479","name":"West Thebarton Hotel The","longitude":"138.56638"}{"address":"Unit 2, 382 South Rd","latitude":"-34.93972","name":"Taverner Hotel Group (Head Office)","longitude":"138.57052"}{"address":"142 Glen Osmond Rd","latitude":"-34.94615","name":"Fountain Inn Hotel","longitude":"138.62421"}{"address":"Suite 3\/ 288 Glen Osmond Rd","latitude":"-34.95433","name":"Langfords Hotel Brokers P\/L","longitude":"138.63604"}{"address":"Unit 2\/ 382 South Rd","latitude":"-34.93972","name":"Taverner Hotel Group","longitude":"138.57052"}{"address":"236b The Parade","latitude":"-34.92133","name":"Hair Tavern","longitude":"138.63943"}{"address":"Unit 2, 382 South Rd","latitude":"-34.93972","name":"Taverner Hotel Group (Head Office)","longitude":"138.57052"}{"address":"51 South Rd","latitude":"-34.91","name":"Bartley Tavern","longitude":"138.56"}{"address":"97 The Parade","latitude":"-34.920974","name":"Norwood Hotel","longitude":"138.632412"}{"address":"120 Magill Rd","latitude":"-34.9157","name":"Oriental Hotel","longitude":"138.631249"}{"address":"Unit 2, 382 South Rd","latitude":"-34.93972","name":"Taverner Hotel Group (Head Office)","longitude":"138.57052"}{"address":"Unit 2, 382 South Rd","latitude":"-34.93972","name":"Taverner Hotel Group (Head Office)","longitude":"138.57052"}{"address":"51 South Rd","latitude":"-34.91479","name":"West Thebarton Hotel The","longitude":"138.56638"}{"address":"Unit 2, 382 South Rd","latitude":"-34.93972","name":"Taverner Hotel Group (Head Office)","longitude":"138.57052"}{"address":"142 Glen Osmond Rd","latitude":"-34.94615","name":"Fountain Inn Hotel","longitude":"138.62421"}{"address":"Suite 3\/ 288 Glen Osmond Rd","latitude":"-34.95433","name":"Langfords Hotel Brokers P\/L","longitude":"138.63604"}{"address":"Unit 2\/ 382 South Rd","latitude":"-34.93972","name":"Taverner Hotel Group","longitude":"138.57052"}{"address":"236b The Parade","latitude":"-34.92133","name":"Hair Tavern","longitude":"138.63943"}{"address":"Unit 2, 382 South Rd","latitude":"-34.93972","name":"Taverner Hotel Group (Head Office)","longitude":"138.57052"}{"address":"51 South Rd","latitude":"-34.91","name":"Bartley Tavern","longitude":"138.56"}{"address":"97 The Parade","latitude":"-34.920974","name":"Norwood Hotel","longitude":"138.632412"}