[ {"address":"Ground Level 281-286 North Tce",
"latitude":"-34.921124",
"name":"Foodtopia",
"longitude":"138.608864"},
{"address":"125- 127 Pirie St","latitude":"-34.925888","name":"From Orient","longitude":"138.604431"},
{"address":"204 Rundle St","latitude":"-34.92236","name":"Cafe Michael 2","longitude":"138.607208"},{"address":"117 Gouger St","latitude":"-34.93064","name":"Nu Thai Restaurant","longitude":"138.595"},{"address":"82 Hutt St (Cnr Wakefield St)","latitude":"-34.92835","name":"House Of Chow Pty Ltd","longitude":"138.6124"},{"address":"31 Hindmarsh Sq","latitude":"-34.923827","name":"Jasmin Indian Restaurant","longitude":"138.604671"},{"address":"Ground Floor, Majestic Roof Garden Hotel, 55 Frome St","latitude":"-34.922803","name":"Culshaw's Restaurant","longitude":"138.607768"},{"address":"85 Moonta St","latitude":"-34.93","name":"Chennai Palace","longitude":"138.59"},{"address":"91 - 93 Gouger St","latitude":"-34.9306","name":"Gaucho's Argentinean Restaurant","longitude":"138.59587"},{"address":"14 East Tce","latitude":"-34.92214","name":"P.J.O'Brien's Irish Pub","longitude":"138.61049"},{"address":"140 North Tce","latitude":"-34.921856","name":"Parlamento Restaurant","longitude":"138.597721"},{"address":"289 Rundle St","latitude":"-34.92264","name":"Lemongrass Thai Bistro","longitude":"138.61029"},{"address":"95 Gouger St","latitude":"-34.930617","name":"Celsius Restaurant & Bar","longitude":"138.595734"},{"address":"129 North Tce","latitude":"-34.922","name":"Balcony Restaurant","longitude":"138.59695"},{"address":"242 Pulteney St","latitude":"-34.92855","name":"Alphutte Restaurant","longitude":"138.60631"},{"address":"291 Morphett St","latitude":"-34.930891","name":"Homevalley BBQ Restaurant","longitude":"138.593729"},{"address":"291 Rundle St","latitude":"-34.92244","name":"Sosta Argentinian Kitchen","longitude":"138.61037"},{"address":"75 Hindley St","latitude":"-34.92337","name":"Quiet Waters Lebanese Restaurant BYO","longitude":"138.5967"},{"address":"103 Gouger St","latitude":"-34.93062","name":"Great River Korean BBQ Restaurant","longitude":"138.59559"},{"address":"277 Rundle Street,","latitude":"-34.92246","name":"Eros Ouzeri","longitude":"138.60976"},{"address":"130 Grote St","latitude":"-34.928616","name":"Park Lok Chinese Restaurant","longitude":"138.594367"},{"address":"13 Gilbert Pl","latitude":"-34.92352","name":"The Original Pancake Kitchen","longitude":"138.59877"},{"address":"314b Pulteney St","latitude":"-34.93089","name":"Le Riad Restaurant","longitude":"138.60654"},{"address":"27-29 Gouger St","latitude":"-34.93048","name":"Ky Chow Chinese Restaurant","longitude":"138.598174"},{"address":"Jolleys La","latitude":"-34.916849","name":"Jolleys Boathouse Restaurant","longitude":"138.599598"},{"address":"Within the Adina Apartment Hotel, 144 King William St,","latitude":"-34.92671","name":"Treasury On King William","longitude":"138.60038"},{"address":"287 Rundle St","latitude":"-34.92264","name":"Chopstix On Rundle","longitude":"138.61021"},{"address":"30 Waymouth St","latitude":"-34.925625","name":"The Gallery","longitude":"138.598501"},{"address":"285 Rundle St","latitude":"-34.922626","name":"Restaurant Orana","longitude":"138.610128"},{"address":"264 Flinders St","latitude":"-34.92637","name":"Decant Restaurant","longitude":"138.61037"},{"address":"Unit 1\/ 242 Hutt St","latitude":"-34.933939","name":"Louca's Seafood Grill","longitude":"138.612784"},{"address":"","latitude":"-34.928605","name":"Adelaide Casino","longitude":"138.601685"},{"address":"94 Hindley St","latitude":"-34.922786","name":"Woolshed On Hindley Pty Ltd","longitude":"138.595972"},{"address":"11 Ebenezer Pl","latitude":"-34.92","name":"Hey Jupiter","longitude":"138.6"},{"address":"18 Leigh St","latitude":"-34.92365","name":"Cos Restaurant","longitude":"138.59779"},{"address":"187 Rundle St","latitude":"-34.92261","name":"Cafe Brunelli","longitude":"138.60675"},{"address":"12 Waymouth St","latitude":"-34.92559","name":"Manna Caffe","longitude":"138.5991"},{"address":"88 GILBERT St","latitude":"-34.93423","name":"GILBERT STREET HOTEL","longitude":"138.59708"},{"address":"29 Frome St","latitude":"-34.92223","name":"Amalfi Pizzeria Ristorante","longitude":"138.60767"},{"address":"144 King William St","latitude":"-34.92671","name":"Treasury On King William","longitude":"138.60038"},{"address":"290 Rundle St","latitude":"-34.922261","name":"Taj Tandoor","longitude":"138.610218"},{"address":"150 North Tce","latitude":"-34.92204","name":"Swish On Terrace","longitude":"138.59848"},{"address":"150 North Tce","latitude":"-34.92204","name":"TG's Restaurant","longitude":"138.59848"},{"address":"208 South Tce","latitude":"-34.93509","name":"Grand Chifley Adelaide","longitude":"138.60429"},{"address":"116 Grote St","latitude":"-34.928595","name":"The Promethean","longitude":"138.594906"},{"address":"150 North Tce","latitude":"-34.92204","name":"Rickshaws Restaurant","longitude":"138.59848"},{"address":"69 Grote St","latitude":"-34.92","name":"Mother's Crepe","longitude":"138.59"},{"address":"10 Vaughan Pl","latitude":"-34.922016","name":"Jah'z Restaurant","longitude":"138.609132"},{"address":"20 Waymouth St","latitude":"-34.9256","name":"Georges On Waymouth Restaurant","longitude":"138.59884"},{"address":"North Tce","latitude":"-34.92117","name":"Art Gallery Restaurant","longitude":"138.596357"},{"address":"172 Pulteney St","latitude":"-34.92589","name":"Sumo Station","longitude":"138.60612"},{"address":"72-74 Halifax St","latitude":"-34.932546","name":"Panacea Restaurant","longitude":"138.603044"},{"address":"18 Currie St","latitude":"-34.924159","name":"Hotel Grand Chancellor Adelaide on Currie","longitude":"138.598882"},{"address":"12 Leigh St","latitude":"-34.923385","name":"Casa Bla Bla Restaurant","longitude":"138.597821"},{"address":"187 Rundle St","latitude":"-34.923021","name":"Brunelli","longitude":"138.606781"},{"address":"Plane Tree Dr","latitude":"-34.9159015252805","name":"Botanic Gardens Restaurant","longitude":"138.61044181078"},{"address":"11 Waymouth St","latitude":"-34.926173","name":"Un Caffe","longitude":"138.598856"},{"address":"129 North Tce","latitude":"-34.922","name":"Cafe One Two Nine","longitude":"138.59695"},{"address":"233 Victoria Sq","latitude":"-34.92915","name":"Brasserie Restaurant","longitude":"138.59869"},{"address":"242 Rundle St","latitude":"-34.922325","name":"Taj Tandor Indian Restaurant","longitude":"138.608588"},{"address":"240 Hutt St","latitude":"-34.93339","name":"Buenos Aires Argentinian Restaurant","longitude":"138.61282"},{"address":"233 Victoria Square,","latitude":"-34.92915","name":"Brasserie Restaurant","longitude":"138.598687"},{"address":"16 Hindmarsh Sq","latitude":"-34.92","name":"Red Salt Restaurant","longitude":"138.6"},{"address":"171a Hutt St","latitude":"-34.931332","name":"Ashoka Indian Cuisine","longitude":"138.611886"},{"address":"Station Rd","latitude":"-34.92","name":"North Restaurant","longitude":"138.59"},{"address":"1 King William St","latitude":"-34.921982","name":"Un Caffe","longitude":"138.599075"},{"address":"Station Rd","latitude":"-34.92","name":"North Terrace (Skycity)","longitude":"138.59"},{"address":"North Tce","latitude":"-34.92117","name":"Adelaide Casino","longitude":"138.596357"},{"address":"55 Frome St","latitude":"-34.92307","name":"Culshaw's Restaurant","longitude":"138.607969"},{"address":"82 Hutt St","latitude":"-34.92835","name":"House Of Chow Restaurant","longitude":"138.6124"},{"address":"27 Leigh St","latitude":"-34.92398","name":"Rigoni's Bistro","longitude":"138.59763"},{"address":"141 Currie St","latitude":"-34.92502","name":"Colonel Light Hotel","longitude":"138.59267"},{"address":"144 Grote St","latitude":"-34.92873","name":"Ga Bin Restaurant","longitude":"138.593573"},{"address":"94 Frome St","latitude":"-34.924368","name":"Andre's Cucina & Polenta Bar","longitude":"138.608053"},{"address":"33 Hindmarsh Sq","latitude":"-34.92441","name":"Thai In A Wok","longitude":"138.605002"},{"address":"110-112 Gawler Pl","latitude":"-34.9255","name":"Thea Tea Shop","longitude":"138.60207"},{"address":"7\/13 Leigh St","latitude":"-34.92353","name":"Corner Bistrot, The","longitude":"138.59759"},{"address":"278a Rundle St","latitude":"-34.92229","name":"Rundle Spices Noodle Bar & Restaurant","longitude":"138.60978"},{"address":"310 Pulteney St","latitude":"-34.93086","name":"Pondok Bali Restaurant","longitude":"138.606197"},{"address":"79 Gouger St","latitude":"-34.9303","name":"Paul's Seafood On Gouger","longitude":"138.59634"},{"address":"233 Franklin St","latitude":"-34.92792","name":"Benjamin On Franklin Hotel","longitude":"138.59039"},{"address":"82 Gouger St","latitude":"-34.930029","name":"Dim Well Cafe","longitude":"138.596246"},{"address":"242 Pulteney St","latitude":"-34.92855","name":"Alphutte Restaurant Pty Ltd","longitude":"138.60631"},{"address":"Aston House","latitude":"-34.92353","name":"Korea Jung","longitude":"138.59759"},{"address":"81- 83 Gouger St","latitude":"-34.93058","name":"Mong Kok","longitude":"138.59618"},{"address":"445 Pulteney St","latitude":"-34.93424","name":"Indian Delights","longitude":"138.60616"},{"address":"265 Pirie St","latitude":"-34.9255","name":"Hotel Tivoli","longitude":"138.60967"},{"address":"At Rear 273 Hindley St","latitude":"-34.92373","name":"Bebe's Room","longitude":"138.58909"},{"address":"310 Pulteney St","latitude":"-34.93086","name":"Pondok Bali","longitude":"138.606197"},{"address":"287 Rundle St","latitude":"-34.92264","name":"Chopstix","longitude":"138.61021"},{"address":"King William Rd","latitude":"-34.919892","name":"Adelaide Festival Centre","longitude":"138.598837"},{"address":"91 Gouger St","latitude":"-34.9306","name":"Gaucho's","longitude":"138.59587"},{"address":"144 King William St,","latitude":"-34.92671","name":"Treasury On King William","longitude":"138.60038"},{"address":"309 North Tce","latitude":"-34.921413","name":"Botanic Bar","longitude":"138.610543"},{"address":"346 King William St","latitude":"-34.93233","name":"La Trattoria Restaurant & Pizza Bar","longitude":"138.60032"},{"address":"82 Hutt St(Cnr Wakefield St)","latitude":"-34.92835","name":"House Of Chow Restaurant","longitude":"138.6124"},{"address":"62 Pulteney St","latitude":"-34.9233","name":"The Deli On Pultney","longitude":"138.60589"},{"address":"Lobby Level | Intercontinental Adelaide North Tce","latitude":"-34.9214037486854","name":"Riverside Restaurant","longitude":"138.601146483885"},{"address":"68 Hindley St","latitude":"-34.92246","name":"Yum- Thai Restaurant","longitude":"138.59732"},{"address":"Cougar St","latitude":"-34.93","name":"Sushi Train","longitude":"138.6"},{"address":"7 Compton St","latitude":"-34.93064","name":"Bliss Organic Garden Cafe","longitude":"138.59651"},{"address":"272 Rundle St","latitude":"-34.92247","name":"Scoozi Caffe Bar-Rundle Street","longitude":"138.60956"},{"address":"Shop 4 82 King William St","latitude":"-34.92","name":"Sushi Train","longitude":"138.59"},{"address":"187 Rundle St","latitude":"-34.92261","name":"Red Rock Noodle Bar & Restaurant","longitude":"138.60675"},{"address":"270-274 Morphett St","latitude":"-34.93","name":"British India Indian Restaurant","longitude":"138.59432"},{"address":"Cnr South Tce & Pulteney Sts","latitude":"-34.935367","name":"Fasta Pasta","longitude":"138.606518"},{"address":"81-89 Hutt St","latitude":"-34.92847","name":"Bocelli Caffe Ristorante","longitude":"138.61201"},{"address":"127 Gouger St","latitude":"-34.93066","name":"Hogs Breath Cafe","longitude":"138.59463"},{"address":"North Tce","latitude":"-34.92117","name":"Shiki Japanese Restaurant","longitude":"138.596357"},{"address":"240 Rundle St","latitude":"-34.92231","name":"Vego & Love'N It","longitude":"138.60851"},{"address":"214 Hutt St","latitude":"-34.93284","name":"Kathmandu Palace Restaurant","longitude":"138.61246"},{"address":"129 North Tce","latitude":"-34.921998","name":"Strathmore Hotel","longitude":"138.596951"},{"address":"65 Gouger St","latitude":"-34.9305","name":"Fortune Duck Restaurant","longitude":"138.59688"},{"address":"46 Exchange Pl","latitude":"-34.925323","name":"Pranzo","longitude":"138.60051"},{"address":"Moonta St","latitude":"-34.929536","name":"International Food Plaza","longitude":"138.595855"},{"address":"3 California St","latitude":"-34.93019","name":"Fresh Beef Noodle Soup","longitude":"138.596498"},{"address":"408 King William St","latitude":"-34.93458","name":"Sugar Cane Vietnamese Restaurant","longitude":"138.60078"},{"address":"22 Grote St","latitude":"-34.92844","name":"Auge Ristorante","longitude":"138.59822"},{"address":"140 Gouger St","latitude":"-34.930413","name":"Mesa Lunga","longitude":"138.59417"},{"address":"160 Hutt St","latitude":"-34.93076","name":"Chianti Classico","longitude":"138.612616"},{"address":"202 Hutt St","latitude":"-34.93248","name":"Alfonso's Continental","longitude":"138.61269"},{"address":"449a Pulteney St","latitude":"-34.934399","name":"Meesu Vegetarian Kitchen","longitude":"138.606132"},{"address":"Hilton Adelaide 233 Victoria Sq","latitude":"-34.92915","name":"Brasserie The","longitude":"138.59869"},{"address":"225 Rundle St","latitude":"-34.92278","name":"Daniel's Licensed Restaurant","longitude":"138.60808"},{"address":"210 North Tce","latitude":"-34.921425","name":"Chris Jarmer @ Air Bistro & Bar","longitude":"138.60318"},{"address":"22 Gilbert Pl","latitude":"-34.92345","name":"Penang Malaysian & Chinese Restaurant","longitude":"138.59883"},{"address":"31 Moonta St","latitude":"-34.929914","name":"Evergreen Restaurant","longitude":"138.595709"},{"address":"174a Hutt St","latitude":"-34.93135","name":"Woks Happ'Ning","longitude":"138.61266"},{"address":"449 Pulteney St","latitude":"-34.934297","name":"Vietnam Kitchen","longitude":"138.606164"},{"address":"113 Gouger St","latitude":"-34.93063","name":"Mapo Korean Restaurant","longitude":"138.59517"},{"address":"240 Hutt St","latitude":"-34.933387","name":"Norberto's Buenos Aires","longitude":"138.612816"},{"address":"Stall 1 Central Market Grote St","latitude":"-34.928621","name":"Sunmi's Sushi","longitude":"138.592916"},{"address":"273 Hindley St","latitude":"-34.92373","name":"Marcellina Pizza Bar & Restaurant","longitude":"138.58909"},{"address":"12 Field St","latitude":"-34.930885","name":"Thanh-Thanh Vietnamese Restaurant","longitude":"138.596204"},{"address":"13 Gouger St","latitude":"-34.930196","name":"The Marquis","longitude":"138.59848"},{"address":"277 Rundle St","latitude":"-34.92246","name":"Eros Greek Restaurant","longitude":"138.60976"},{"address":"277 Rundle St","latitude":"-34.92246","name":"Eros Ouzeri","longitude":"138.60976"},{"address":"136 North Tce","latitude":"-34.92202","name":"The Cavern Adelaide","longitude":"138.59728"},{"address":"217 Rundle St","latitude":"-34.9228","name":"Al Amir","longitude":"138.60777"},{"address":"17 Leigh St","latitude":"-34.92362","name":"Bollywood Indian Restaurant","longitude":"138.5976"},{"address":"116a Gouger St","latitude":"-34.93009","name":"Cafe Kowloon","longitude":"138.59506"},{"address":"Shop 1, 9-15 Field St","latitude":"-34.93083","name":"Wasai Japanese Kitchen","longitude":"138.59579"},{"address":"Victoria Square Shopping Centre Shop 9\/ Gouger St","latitude":"-34.9304478299934","name":"Malacca Corner Restaurant","longitude":"138.593531340678"},{"address":"1\/ 117 King William St","latitude":"-34.92558","name":"The Bean Bar","longitude":"138.59935"},{"address":"U1\/ 465 Pulteney St","latitude":"-34.9349","name":"Cafe Quisine","longitude":"138.606458"},{"address":"Shop 3, 75 Grote St","latitude":"-34.92914","name":"Hong Fat BBQ Restaurant","longitude":"138.59631"},{"address":"162 Gouger St","latitude":"-34.9302","name":"Hotaru Japanese Restaurant","longitude":"138.59308"},{"address":"7\/13 Leigh St","latitude":"-34.92353","name":"The Corner Bistrot","longitude":"138.59759"},{"address":"162- 164 Gouger St","latitude":"-34.9302","name":"Hotaru","longitude":"138.59308"},{"address":"262 Carrington St","latitude":"-34.93059","name":"Enoteca","longitude":"138.61016"},{"address":"275 Rundle St","latitude":"-34.92246","name":"Eros Kafe","longitude":"138.60976"},{"address":"214 Hutt St","latitude":"-34.93284","name":"Kathmandu Restaurant","longitude":"138.61246"},{"address":"61- 63 Grote St","latitude":"-34.928837","name":"Market Plaza Food Court","longitude":"138.59703"},{"address":"270 Hindley St","latitude":"-34.923194","name":"Yiannis On Hindley","longitude":"138.589396"},{"address":"27d Moonta St","latitude":"-34.929808","name":"Suzuki Sushi","longitude":"138.597104"},{"address":"233 Victoria Sq","latitude":"-34.92915","name":"Hilton Adelaide","longitude":"138.59869"},{"address":"85 Gouger St","latitude":"-34.93058","name":"Wah Hing Restaurant","longitude":"138.59612"},{"address":"Ground Floor, Majestic Roof Garden Hotel, 55 Frome St,","latitude":"-34.92307","name":"Culshaw's Grill","longitude":"138.607969"},{"address":"65 Hyde St","latitude":"-34.9263","name":"Seoul Restaurant","longitude":"138.6044"},{"address":"Shp 3\/ 296 Rundle St","latitude":"-34.92197","name":"Kishi Sushi Pty Ltd","longitude":"138.610452"},{"address":"Shop 5, 242 Hutt St","latitude":"-34.93398","name":"Kenji Modern Japanese","longitude":"138.61255"},{"address":"75 - 79 Halifax St","latitude":"-34.93305","name":"The Greek On Halifax","longitude":"138.60319"},{"address":"171 Hutt St","latitude":"-34.93133","name":"Barendoe Restaurant Tapas Bar","longitude":"138.61189"},{"address":"132 Gouger St","latitude":"-34.93041","name":"Concubine","longitude":"138.59428"},{"address":"42 Currie St","latitude":"-34.92442","name":"Banana Leaf Indian Restaurant","longitude":"138.59793"},{"address":"114 Gouger St","latitude":"-34.93009","name":"Ying Chow Chinese Restaurant","longitude":"138.59511"},{"address":"53 Gouger St","latitude":"-34.93051","name":"Passatempo Caffe Ristorante","longitude":"138.59727"},{"address":"Shp1\/ 31 Gouger St","latitude":"-34.93053","name":"Star House Chinese Restaurant","longitude":"138.59788"},{"address":"408 King William Rd","latitude":"-34.93458","name":"Sugar Cane Vietnamese Restaurant","longitude":"138.60078"},{"address":"Shp 12a\/ Moonta St","latitude":"-34.9295640272607","name":"Ramen Tei","longitude":"138.595859130906"},{"address":"Shop 8G Gays Arc","latitude":"-34.92349","name":"Katsumoto","longitude":"138.604184"},{"address":"Chinatown 68 Moonta St","latitude":"-34.92922","name":"T Chow Chinese Restaurant","longitude":"138.59568"},{"address":"104 Gouger St","latitude":"-34.92999","name":"Talbot Hotel","longitude":"138.595483"},{"address":"North Tce","latitude":"-34.921404","name":"Michael's Cantina","longitude":"138.601146"},{"address":"84 Gouger St","latitude":"-34.93002","name":"BBQ City Restaurant","longitude":"138.59618"},{"address":"205 Rundle St","latitude":"-34.92285","name":"Austral Hotel\/Bunka Restaurant","longitude":"138.60737"},{"address":"Shp3\/ 26 Bank St","latitude":"-34.922525","name":"Mandoo","longitude":"138.597743"},{"address":"218 Morphett St","latitude":"-34.9281","name":"Hong Kee Restaurant","longitude":"138.593854"},{"address":"Upper Lobby Level | Intercontinental Adelaide North Tce","latitude":"-34.9214037486854","name":"Shiki","longitude":"138.601146483885"},{"address":"13 Bent St","latitude":"-34.92316","name":"Joy Discovery Cafe","longitude":"138.60755"},{"address":"207 Gilbert St","latitude":"-34.93494","name":"Brunswick The","longitude":"138.59244"},{"address":"47 Gouger St","latitude":"-34.930494","name":"Mandarin House","longitude":"138.5975"},{"address":"61 Grote St","latitude":"-34.929617","name":"O'Sushi O'Bento","longitude":"138.59655"},{"address":"Shp35 101 Rundle Mall","latitude":"-34.923148","name":"Ajisen Ramen","longitude":"138.603486"},{"address":"Rundle Mall","latitude":"-34.92","name":"Nanyang Cafe","longitude":"138.6"},{"address":"40 Waymouth St","latitude":"-34.925481","name":"Press Food & Wine","longitude":"138.598019"},{"address":"100 Gawler Pl","latitude":"-34.925011","name":"Sushi In The City","longitude":"138.602234"},{"address":"26 Flinders St","latitude":"-34.926646","name":"Essential Cafe","longitude":"138.601568"},{"address":"Victoria St","latitude":"-34.9223949173","name":"The Little Hunter","longitude":"138.596052208"},{"address":"70 Waymouth St","latitude":"-34.925682","name":"Union Hotel","longitude":"138.597319"},{"address":"88 Wright St","latitude":"-34.931446","name":"Hotel Wright Street","longitude":"138.597047"},{"address":"157 Gouger St","latitude":"-34.930746","name":"Ming's Palace","longitude":"138.593234"},{"address":"9a James Pl","latitude":"-34.92","name":"Miss Mai Vietnamese Eatery","longitude":"138.6"},{"address":"147 Hindley St","latitude":"-34.923607","name":"Tapas On Hindley","longitude":"138.594044"},{"address":"163 Waymouth St","latitude":"-34.926126","name":"Garage Bar & Dining","longitude":"138.593333"},{"address":"18 Stephens Pl","latitude":"-34.92","name":"Swinging Bowl Satay","longitude":"138.6"},{"address":"204 Rundle St","latitude":"-34.92236","name":"Cafe Michael","longitude":"138.60721"},{"address":"128 Rundle Mall","latitude":"-34.92242","name":"First At Hotel Richmond","longitude":"138.60422"},{"address":"Flr2\/ 23 Leigh St","latitude":"-34.92386","name":"Ajisen Ranen","longitude":"138.59738"},{"address":"Cnr Of Rundle Mall & King William St","latitude":"-34.92","name":"Buskers","longitude":"138.59"},{"address":"120 North Tce","latitude":"-34.92","name":"The Playford Restaurant","longitude":"138.59"},{"address":"46 Exchange Pl","latitude":"-34.925323","name":"Pranzo Restaurant","longitude":"138.60051"},{"address":"88 Gawler Pl","latitude":"-34.92464","name":"Salad Box","longitude":"138.60221"},{"address":"Myer Centre Foodcourt","latitude":"-34.922939","name":"KFC Restaurants","longitude":"138.60046"},{"address":"11 Leigh St","latitude":"-34.923536","name":"Udaberri Pintxos Y Vino","longitude":"138.597594"},{"address":"North Tce","latitude":"-34.921404","name":"Regattas Bistro","longitude":"138.601146"},{"address":"464 Putney St","latitude":"-34.928605","name":"Italiano Cafe","longitude":"138.601685"},{"address":"52 Hindley St","latitude":"-34.922715","name":"China Bar","longitude":"138.597408"},{"address":"120 North Tce","latitude":"-34.922172","name":"The Playford","longitude":"138.596212"},{"address":"Hindley St","latitude":"-34.92","name":"Clunge Corner","longitude":"138.59"},{"address":"17 Pitt St","latitude":"-34.92","name":"Charcoal Hwaro Korean Bbq","longitude":"138.59"},{"address":"289 Pirie St","latitude":"-34.92561","name":"Checkmates Restaurant","longitude":"138.61054"},{"address":"187 Rundle St","latitude":"-34.92261","name":"Bistro & Beyond","longitude":"138.60675"},{"address":"83 Gouger St","latitude":"-34.93031","name":"Rice Bowl","longitude":"138.59623"},{"address":"192 Pirie St","latitude":"-34.92511","name":"Winstons Bar","longitude":"138.60716"},{"address":"255 Hindley St","latitude":"-34.92384","name":"Nautilus Restaurant","longitude":"138.58996"},{"address":"82 Carrington St","latitude":"-34.93095","name":"Saracen's Head The","longitude":"138.60357"},{"address":"Festival Drv","latitude":"-34.92029","name":"Adelaide Festival Centre","longitude":"138.594134"},{"address":"U1\/ 465 Pulteney St","latitude":"-34.9349","name":"Darshanas Indian Cuisine","longitude":"138.606458"},{"address":"113 Gouger St","latitude":"-34.930629","name":"Mapo Restaurant","longitude":"138.595196"},{"address":"North Tce","latitude":"-34.92117","name":"North","longitude":"138.596357"},{"address":"Cnr King William & Gilles St","latitude":"-34.934286","name":"Citi Zen Chinese Restaurant","longitude":"138.600466"},{"address":"316 Pulteney St","latitude":"-34.93102","name":"Earl Of Aberdeen Hotel","longitude":"138.60656"},{"address":"88 Gawler Pl","latitude":"-34.92","name":"Sui Yuang","longitude":"138.6"},{"address":"129 North Tce","latitude":"-34.922","name":"Strathmore Balcony Restaurant","longitude":"138.59695"},{"address":"Stall6\/ Rundall Mall","latitude":"-34.928605","name":"Buskers Resturant Randall Mall","longitude":"138.601685"},{"address":"Shop 6 85 Grote St","latitude":"-34.9292","name":"Ken's Restaurant","longitude":"138.596"},{"address":"North Tce,","latitude":"-34.92117","name":"SKYCITY Adelaide","longitude":"138.596357"},{"address":"Cnr Morphett & Hindley Sts","latitude":"-34.92312","name":"Spice Market Restaurant","longitude":"138.59284"},{"address":"Cnr Botanic & Hackney Roads","latitude":"-34.919632","name":"National Wine Centre of Australia","longitude":"138.614992"},{"address":"77 Hindley St","latitude":"-34.92337","name":"Shu Shan Legend","longitude":"138.59664"},{"address":"91 Hindley St","latitude":"-34.92354","name":"Cafe Tempo","longitude":"138.59607"},{"address":"55 - 67 Hindmarsh Sq","latitude":"-34.92441","name":"Sq Restaurant & Lounge","longitude":"138.60464"},{"address":"U7\/ 2 Renaissance Arc","latitude":"-34.92224215","name":"Zen Kitchens","longitude":"138.60390095"},{"address":"280 Rundle St","latitude":"-34.92228","name":"Yiro Organic","longitude":"138.60993"},{"address":"Shop 35 Regent Arcade","latitude":"-34.9234701","name":"Unicorn Noodle Box","longitude":"138.6034667"},{"address":"Shp 5\/ 118 King William St","latitude":"-34.925595","name":"Little india Takeaway","longitude":"138.600093"},{"address":"L1, 280 Rundle St","latitude":"-34.92228","name":"The Blue Note","longitude":"138.60993"},{"address":"157 Waymouth St","latitude":"-34.9263","name":"Saso Cafe","longitude":"138.59396"},{"address":"301- 303 Morphett St","latitude":"-34.93121","name":"Mings","longitude":"138.59375"},{"address":"21 Hindley St","latitude":"-34.92329","name":"Adelaide Hot Pot Restaurant","longitude":"138.59854"},{"address":"91 Hindley St","latitude":"-34.92354","name":"Tempo Cafe Restaurant Bar Functions","longitude":"138.59607"},{"address":"125 Pirie St","latitude":"-34.92553","name":"Fontana Di Trevi","longitude":"138.60439"},{"address":"115 Waymouth St","latitude":"-34.926201","name":"Furat Restaurant","longitude":"138.595421"},{"address":"465 Pulteney St","latitude":"-34.9349","name":"Anytime Modern Chinese Restaurant","longitude":"138.606458"},{"address":"57 Gilbert St","latitude":"-34.9344","name":"Feliciano's Restaurant & Pizzeria","longitude":"138.5983"},{"address":"North Tce","latitude":"-34.92117","name":"Signals","longitude":"138.596357"},{"address":"214 Hutt St","latitude":"-34.93284","name":"Pakwan","longitude":"138.61246"},{"address":"300 Rundle St","latitude":"-34.92214","name":"Caffe Primo on Rundle","longitude":"138.61049"},{"address":"188A Hutt St","latitude":"-34.93","name":"Caff? Primo","longitude":"138.61"},{"address":"171a Hutt St","latitude":"-34.931332","name":"Tandoori Cafe Adelaide","longitude":"138.611861"},{"address":"2 Topham Mall","latitude":"-34.9251895654897","name":"Harmony Tea and Sushi","longitude":"138.597714169998"},{"address":"62 Pulteney St","latitude":"-34.9233","name":"Corporate Food Catering","longitude":"138.60589"},{"address":"156 Gouger St","latitude":"-34.930192","name":"Rumbles Snackbar","longitude":"138.593326"},{"address":"Central Mrkt","latitude":"-34.929808","name":"Lucia's Pizza Bar","longitude":"138.597104"},{"address":"Strathmore Hotel 129 North Tce","latitude":"-34.922","name":"Stonegrill","longitude":"138.59695"},{"address":"Shp55\/ 1 Victoria Sq","latitude":"-34.927211","name":"Yutaka Sushi","longitude":"138.598898"},{"address":"31 Moonta St","latitude":"-34.92991","name":"Han Kuk Kwan","longitude":"138.59571"},{"address":"210 North Tce","latitude":"-34.921425","name":"Restaurant Air","longitude":"138.60318"},{"address":"30 East Tce","latitude":"-34.92303","name":"Cono's Pizzeria","longitude":"138.61068"},{"address":"187c Rundle St","latitude":"-34.923029","name":"Dumplings Are Us","longitude":"138.60678"},{"address":"175 O'Connell St","latitude":"-34.903603","name":"Chuck Wagon Pty Ltd","longitude":"138.594759"},{"address":"100 Hindley St","latitude":"-34.92292","name":"Hindley Pasta Palace","longitude":"138.59579"},{"address":"Rydges South Park, 1 South Tce","latitude":"-34.93626","name":"Skyline Restaurant","longitude":"138.58901"},{"address":"199 Hutt St","latitude":"-34.93214","name":"Citrus","longitude":"138.61199"},{"address":"Moonta St","latitude":"-34.929536","name":"T Chow Restaurant","longitude":"138.595855"},{"address":"27 Bank St","latitude":"-34.9229","name":"Tandoori Hut","longitude":"138.59767"},{"address":"U 2 & 3\/ 242 Hutt St","latitude":"-34.93398","name":"Dragon Court Restaurant","longitude":"138.61255"},{"address":"270 Rundle St","latitude":"-34.92248","name":"Fumo Blue Cocktail Lounge","longitude":"138.60951"},{"address":"4 East Tce","latitude":"-34.92131","name":"Botanic Cafe","longitude":"138.61073"},{"address":"9 Light Sq","latitude":"-34.92388","name":"Viva Function Centre","longitude":"138.59287"},{"address":"Shp 3\/ 185 Victoria Sq","latitude":"-34.927512","name":"Tandoori Square","longitude":"138.598773"},{"address":"185 Victoria Sq","latitude":"-34.92751","name":"Quan on Victoria","longitude":"138.59877"},{"address":"173 Hutt St","latitude":"-34.93141","name":"X.O. Supper Club","longitude":"138.61189"},{"address":"63 Flinders St","latitude":"-34.92728","name":"Lena's Place","longitude":"138.60297"},{"address":"108 Gouger St","latitude":"-34.93","name":"Lobster City Cafe","longitude":"138.59535"},{"address":"171 Hutt St","latitude":"-34.931332","name":"Barendoe","longitude":"138.611886"},{"address":"114 Hindley St","latitude":"-34.922997","name":"Basement Bar The","longitude":"138.595247"},{"address":"11 Moonta St","latitude":"-34.929792","name":"Flying Sky","longitude":"138.595578"},{"address":"184 Hindley St","latitude":"-34.923123","name":"Don Don Korean BBQ","longitude":"138.59249"},{"address":"195 North Tce","latitude":"-34.92","name":"India","longitude":"138.6"},{"address":"Shp1\/ 212 Rundle St","latitude":"-34.922344","name":"Taste Baguette Group Pty Ltd","longitude":"138.607515"},{"address":"116 Grote St","latitude":"-34.92","name":"Tangritah Uyghur Shish Kebab Restaurant","longitude":"138.59"},{"address":"214 Rundle St","latitude":"-34.922344","name":"Zambrero Restaurant","longitude":"138.607515"},{"address":"14 James Pl","latitude":"-34.92","name":"It'su Sushi & Desserts","longitude":"138.6"},{"address":"182 Victoria Sq","latitude":"-34.927359","name":"Blefary Caffe n Cucina","longitude":"138.601035"},{"address":"261 Gouger St","latitude":"-34.930648","name":"La Sing Karaoke Restaurant","longitude":"138.58959"},{"address":"48-50 Hindley St","latitude":"-34.92","name":"Tasty Thai","longitude":"138.59"},{"address":"92 Gawler Pl","latitude":"-34.924768","name":"Tokyo Ramen","longitude":"138.602215"},{"address":"Shop 1 39 Grenfell St","latitude":"-34.92","name":"Roll & Roll","longitude":"138.6"},{"address":"167 Gouger St","latitude":"-34.930748","name":"Vietnam Star City Restaurant","longitude":"138.592915"},{"address":"22 Grote St","latitude":"-34.928438","name":"La Cucina Adelaide Pty Ltd","longitude":"138.598222"},{"address":"144 Grote St","latitude":"-34.92873","name":"Lee & Jung Pty Ltd","longitude":"138.593573"},{"address":"358 King William St","latitude":"-34.932668","name":"King William Cafe","longitude":"138.600342"},{"address":"262 South Tce","latitude":"-34.934874","name":"Italian Apparell International Pty Ltd","longitude":"138.608235"},{"address":"172 Pulteney St","latitude":"-34.92589","name":"Mekong River Cuisine","longitude":"138.60612"},{"address":"9 James Pl","latitude":"-34.923243","name":"Miss Mai","longitude":"138.600575"},{"address":"96 North Tce","latitude":"-34.92","name":"MBC Lounge & Bistro","longitude":"138.59"},{"address":"288 North Tce","latitude":"-34.921548","name":"Henry Ayers Restaurant","longitude":"138.609425"},{"address":"149 Waymouth St","latitude":"-34.926286","name":"Kramers Bar & S.T.U.D.S. Restaurant","longitude":"138.59426"},{"address":"54 Pulteney St","latitude":"-34.92","name":"Natee Thai Restaurant","longitude":"138.6"},{"address":"243 Grenfell St","latitude":"-34.92","name":"A Taste of Jamaica","longitude":"138.61"},{"address":"L 1 39 Gouger St","latitude":"-34.93","name":"Aroma Japanese Cuisine Restaurant","longitude":"138.59"},{"address":"73a Hindley St","latitude":"-34.92","name":"D-tox Me","longitude":"138.59"},{"address":"167 Hindley St","latitude":"-34.923566","name":"New India Restaurant","longitude":"138.593072"},{"address":"22 Grote St","latitude":"-34.92844","name":"Auge","longitude":"138.59822"},{"address":"33-35 O'Connell St","latitude":"-34.908203","name":"Thai By 3 Monkeys","longitude":"138.596356"},{"address":"41 George St","latitude":"-34.945477","name":"Namaste Nepalese Restaurant","longitude":"138.613227"},{"address":"161 Melbourne St","latitude":"-34.907829","name":"The Lion Hotel","longitude":"138.60594"},{"address":"58 Finniss St","latitude":"-34.90976","name":"British Hotel","longitude":"138.60484"},{"address":"36 College Rd","latitude":"-34.92104","name":"Chloe's Restaurant & Function Centre","longitude":"138.62232"},{"address":"73 Melbourne St","latitude":"-34.906186","name":"Himalayan Kitchen","longitude":"138.608777"},{"address":"131 Melbourne St","latitude":"-34.90745","name":"Sato Japanese Restaurant","longitude":"138.6071"},{"address":"61 Unley Rd","latitude":"-34.94495","name":"La Tombola Italian Restaurant","longitude":"138.60745"},{"address":"42 Melbourne St","latitude":"-34.905633","name":"Zapata's Mexican Restaurant","longitude":"138.609421"},{"address":"91 O'Connell St","latitude":"-34.906481","name":"Harvest Of India","longitude":"138.595495"},{"address":"170 O'Connell St","latitude":"-34.903564","name":"Beyond India","longitude":"138.595356"},{"address":"Shp 18, 13-23 Unley Rd","latitude":"-34.94261","name":"Pira Thai Cuisine","longitude":"138.60723"},{"address":"165 O'Connell St","latitude":"-34.903925","name":"Regent Thai","longitude":"138.594662"},{"address":"180 O'Connell St","latitude":"-34.903425","name":"Cafe Palazzo North Adelaide","longitude":"138.595328"},{"address":"1 Walkerville Tce","latitude":"-34.9012","name":"Buckingham Arms Hotel","longitude":"138.60953"},{"address":"10 O'Connell St","latitude":"-34.908832","name":"The Curious Squire","longitude":"138.597218"},{"address":"69 Unley Rd","latitude":"-34.945546","name":"Mexican Living","longitude":"138.607584"},{"address":"160 O'Connell St","latitude":"-34.903981","name":"Quality Hotel Old Adelaide","longitude":"138.595828"},{"address":"105 Goodwood Rd","latitude":"-34.92264","name":"Lemongrass Thai Bistro","longitude":"138.61029"},{"address":"95 Hackney Rd","latitude":"-34.91031","name":"Hackney Hotel","longitude":"138.6135"},{"address":"116 O'Connell St","latitude":"-34.905382","name":"Legacy Of India North Adelaide","longitude":"138.595956"},{"address":"160 O'Connell St","latitude":"-34.903981","name":"Snooty Fox Restaurant","longitude":"138.595828"},{"address":"169 Unley Rd","latitude":"-34.950136","name":"Mamma Carmela Cafe Pizzeria","longitude":"138.607857"},{"address":"43 Watson Ave","latitude":"-34.929432","name":"Smythe Road Vintners PTY LTD","longitude":"138.629469"},{"address":"12 King William Rd","latitude":"-34.944024","name":"Womadelaide","longitude":"138.599238"},{"address":"176 Greenhill Rd","latitude":"-34.94","name":"176 Bar & Grill","longitude":"138.61"},{"address":"76 Rundle St","latitude":"-34.920024","name":"Kent Town Hotel","longitude":"138.620474"},{"address":"50 Unley Rd","latitude":"-34.943724","name":"Ristorante Pinocchio","longitude":"138.606514"},{"address":"55 Unley Rd","latitude":"-34.944611","name":"Mondiali Cafe","longitude":"138.607113"},{"address":"116 O'connell St","latitude":"-34.905382","name":"Taj Mahal Authen Indian Cuisine","longitude":"138.595981"},{"address":"108 Tynte St","latitude":"-34.905567","name":"Amarin Thai Restaurant","longitude":"138.596413"},{"address":"62- 64 Payneham Rd","latitude":"-34.91198","name":"Sagarmatha Nepali Restaurant","longitude":"138.62618"},{"address":"41 George St","latitude":"-34.94548","name":"Namast√© Nepalese Restaurant","longitude":"138.61323"},{"address":"War Memorial Drv","latitude":"-34.911132","name":"Red Ochre Grill","longitude":"138.60649"},{"address":"56 Glen Osmond Rd","latitude":"-34.94263","name":"Cafe Sabatini","longitude":"138.61856"},{"address":"134 Melbourne St","latitude":"-34.90712","name":"Montezuma's The Original","longitude":"138.60673"},{"address":"153 Unley Rd","latitude":"-34.94928","name":"Indochina - Unley","longitude":"138.60772"},{"address":"109 King William Rd","latitude":"-34.95039","name":"Raj On Taj","longitude":"138.59975"},{"address":"147 O'Connell St","latitude":"-34.904397","name":"Pattaya Thai (North Adelaide)","longitude":"138.594856"},{"address":"Shp12\/ 13-23 Unley Rd","latitude":"-34.94261","name":"Raj On Taj","longitude":"138.60723"},{"address":"Shop 30, 81 O'Connell St","latitude":"-34.907147","name":"Arya Indian Cuisine","longitude":"138.594467"},{"address":"Shop 19-20 Unley Towers 13-23 Unley Rd","latitude":"-34.94261","name":"Royal Tandoori Restaurant","longitude":"138.60723"},{"address":"141 O Connell St","latitude":"-34.904397","name":"Beyond the Red Restaurant","longitude":"138.594856"},{"address":"36 King William Rd","latitude":"-34.94775","name":"Mantra On King William","longitude":"138.59919"},{"address":"40A Unley Rd","latitude":"-34.94335","name":"Nikitas Greek Restaurant","longitude":"138.606486"},{"address":"55 Unley Rd","latitude":"-34.944611","name":"Mondiali Cafe Restaurant","longitude":"138.607113"},{"address":"98 O'Connell St","latitude":"-34.906119","name":"Coco Corner Vietnamese Restaurant","longitude":"138.596384"},{"address":"153 O'Connell St","latitude":"-34.904397","name":"Saizen Sushi Bar","longitude":"138.594856"},{"address":"48 Unley Rd","latitude":"-34.943646","name":"Ginza Japanese Restaurant","longitude":"138.606617"},{"address":"176 Greenhill Rd","latitude":"-34.94133","name":"Tiffins On The Park","longitude":"138.61248"},{"address":"21 O'Connell St","latitude":"-34.908481","name":"Cucina North Adelaide","longitude":"138.596301"},{"address":"123 O'Connell St","latitude":"-34.905314","name":"Royal Oak Hotel","longitude":"138.594801"},{"address":"63 Melbourne St","latitude":"-34.90642","name":"Lord Melbourne Hotel","longitude":"138.60908"},{"address":"Shp 60\/ 55 Melbourne St","latitude":"-34.9063","name":"Yakitori Takumi","longitude":"138.60955"},{"address":"107 Rundle St","latitude":"-34.91877","name":"Tin Cat","longitude":"138.62106"},{"address":"66 King William Rd","latitude":"-34.95","name":"Marrakech Restaurant","longitude":"138.59948"},{"address":"166 Unley Rd","latitude":"-34.9493","name":"Barzaar","longitude":"138.60655"},{"address":"160 O'Connell St","latitude":"-34.903981","name":"The Snooty Fox Restaurant","longitude":"138.595828"},{"address":"219 O'Connell St","latitude":"-34.902314","name":"Barton's At The Caledonian Hotel","longitude":"138.593995"},{"address":"47 O'Connell St","latitude":"-34.907897","name":"Fasta Pasta Pronto North Adelaide","longitude":"138.596051"},{"address":"59a The Parade","latitude":"-34.92103","name":"Martini Ristorante","longitude":"138.6292"},{"address":"116 Melbourne St","latitude":"-34.906953","name":"Tiger Lilly Cafe","longitude":"138.607031"},{"address":"36 King William Rd","latitude":"-34.947754","name":"Faraja","longitude":"138.599192"},{"address":"46 Unley Rd","latitude":"-34.943515","name":"Vino Ristorante","longitude":"138.606499"},{"address":"27 Kensington Rd","latitude":"-34.92754","name":"Vileroy","longitude":"138.62596"},{"address":"160 O'Connell St","latitude":"-34.903981","name":"Old Adelaide Inn","longitude":"138.595828"}]