[{"address":"204 Rundle St","latitude":"-34.92236","name":"Cafe Michael 2","longitude":"138.607208"},{"address":"129 North Tce","latitude":"-34.922","name":"Cafe One Two Nine","longitude":"138.59695"},{"address":"282 Rundle St","latitude":"-34.922273","name":"Birdcage Cafe","longitude":"138.609981"},{"address":"281 Flinders St","latitude":"-34.92716","name":"Xpresso On Flinders Street","longitude":"138.6109"},{"address":"13 Bent St","latitude":"-34.92316","name":"Joy-Discovery Vegetarian Cafe","longitude":"138.60755"},{"address":"3\/ 25 Grenfell St","latitude":"-34.924713","name":"Turi","longitude":"138.600824"},{"address":"61 Grenfell St","latitude":"-34.92","name":"Un Caffe Bar","longitude":"138.6"},{"address":"Myer Centre, Rundle Mall,","latitude":"-34.921514","name":"Botz Cafe","longitude":"138.600812"},{"address":"224 Grenfell St","latitude":"-34.923831","name":"East End Yiros","longitude":"138.609445"},{"address":"36 Waymouth St","latitude":"-34.925635","name":"Stax","longitude":"138.598203"},{"address":"260 Rundle St","latitude":"-34.922308","name":"Sliders on Rundle","longitude":"138.609248"},{"address":"272 Rundle St","latitude":"-34.92247","name":"Scoozi Caffe Bar-Rundle Street","longitude":"138.60956"},{"address":"Shop 9\/20 James Pl","latitude":"-34.92","name":"Fair Espresso","longitude":"138.6"},{"address":"12 Waymouth St","latitude":"-34.92559","name":"Manna Caffe","longitude":"138.5991"},{"address":"61a Gouger St","latitude":"-34.9305","name":"Cork Wine Cafe","longitude":"138.597"},{"address":"12 Franklin St","latitude":"-34.927212","name":"Public Caffe","longitude":"138.598454"},{"address":"13 Hindley St","latitude":"-34.92302","name":"Cafe Boulevard Restaurant","longitude":"138.59884"},{"address":"4 East Tce","latitude":"-34.92131","name":"Botanic Cafe","longitude":"138.61073"},{"address":"4\/ 400 King William St","latitude":"-34.933786","name":"Stax","longitude":"138.600713"},{"address":"88 Flinders St","latitude":"-34.926695","name":"Stax","longitude":"138.603817"},{"address":"147 Pirie St","latitude":"-34.925806","name":"Funk Coffee   Food","longitude":"138.605073"},{"address":"131 Hindley St","latitude":"-34.92","name":"Sheesha Lounge","longitude":"138.59"},{"address":"100 Angas St","latitude":"-34.929495","name":"Funk Coffee   Food","longitude":"138.604643"},{"address":"60 Flinders St","latitude":"-34.926569","name":"Stax","longitude":"138.602824"},{"address":"32 Glenfell St","latitude":"-34.928605","name":"Pavlos Organic Caf√©","longitude":"138.601685"},{"address":"36 James Pl","latitude":"-34.924105","name":"Caparezza Espresso Bar","longitude":"138.600721"},{"address":"120 Currie St","latitude":"-34.92","name":"Aroma Cafe TafeSA Currie Street","longitude":"138.59"},{"address":"1 128 Gouger St","latitude":"-34.93","name":"Loft Oyster and Wine Bar","longitude":"138.59"},{"address":"241 Pirie St","latitude":"-34.925573","name":"Citi Cafe","longitude":"138.608743"},{"address":"3\/ 19 Grenfell St","latitude":"-34.924627","name":"Stax","longitude":"138.600412"},{"address":"Leigh St","latitude":"-34.92","name":"From Scratch Pop Up Patisserie","longitude":"138.59"},{"address":"86 Grote St","latitude":"-34.9292","name":"Caffe Primo","longitude":"138.596001"},{"address":"187 Rundle St","latitude":"-34.92261","name":"Cafe Brunelli","longitude":"138.60675"},{"address":"172A Hutt St","latitude":"-34.93131","name":"Arlecchino's Gourmet Cafe","longitude":"138.61265"},{"address":"GrndFlr\/ 333 King William St","latitude":"-34.931966","name":"Noshery Food & Coffee Bar","longitude":"138.600142"},{"address":"263 Gouger St","latitude":"-34.93065","name":"Cafe 263","longitude":"138.58953"},{"address":"Shp 80\/ 14 Rundle Mall","latitude":"-34.922722","name":"Yum Delicious","longitude":"138.600168"},{"address":"Renaissance Cntr 127 Rundle Mall","latitude":"-34.92305","name":"Gloria Jean's Coffees","longitude":"138.60415"},{"address":"181 Angas St","latitude":"-34.930014","name":"Vietnamazing Snack Bar","longitude":"138.607819"},{"address":"118 Gouger St","latitude":"-34.930106","name":"Dessert Story","longitude":"138.594974"},{"address":"13 Hindley St","latitude":"-34.92302","name":"Cafe Boulevard Coffee Lounge","longitude":"138.59884"},{"address":"Regent Arc","latitude":"-34.92371","name":"Pepper's Espresso Bar","longitude":"138.60347"},{"address":"97 Currie St","latitude":"-34.92487","name":"My Way Snack Bar Cafe","longitude":"138.59595"},{"address":"John Martin's Plaza","latitude":"-34.922063","name":"Cafe Delore's","longitude":"138.603668"},{"address":"269 Gilles St","latitude":"-34.934044","name":"Cash Store Cafe","longitude":"138.61041"},{"address":"108-110 Flinders St","latitude":"-34.926536","name":"Cafe Como","longitude":"138.604495"},{"address":"Level 2 Rundle Mall","latitude":"-34.92","name":"Relax In Vintage","longitude":"138.6"},{"address":"Level 1\/ 45 Pirie St","latitude":"-34.92611","name":"Fiefy's","longitude":"138.601567"},{"address":"162- 170 Pulteney St","latitude":"-34.92569","name":"Cafe Amore","longitude":"138.60603"},{"address":"102 Hindley St","latitude":"-34.92292","name":"Falafel House","longitude":"138.59571"},{"address":"U1\/ 227 Currie St","latitude":"-34.925089","name":"Red Fox Cafe","longitude":"138.589658"},{"address":"242 Waymouth St","latitude":"-34.92604","name":"Waymouth Cafe","longitude":"138.59065"},{"address":"275 Rundle St","latitude":"-34.92246","name":"Eros Kafe","longitude":"138.60976"},{"address":"12 Hindley St","latitude":"-34.923017","name":"Gloria Jean's Coffees","longitude":"138.59889"},{"address":"239 Hutt St","latitude":"-34.93357","name":"Latte On Hutt","longitude":"138.61203"},{"address":"87 Hindley St","latitude":"-34.92335","name":"Short Black Espresso Bar","longitude":"138.59624"},{"address":"227 North Tce","latitude":"-34.92158","name":"227 Espresso Cafe","longitude":"138.60437"},{"address":"9G Gay's Arc","latitude":"-34.92344215","name":"Caffe L'Incontro","longitude":"138.6041585"},{"address":"6 East Tce","latitude":"-34.92168","name":"East Terrace Continental","longitude":"138.61019"},{"address":"139 Frome St","latitude":"-34.92617","name":"Funk Coffee","longitude":"138.60756"},{"address":"Shp 6\/ 11 Waymouth St","latitude":"-34.92617","name":"Lena's On Waymouth","longitude":"138.59886"},{"address":"217 Rundle St","latitude":"-34.9228","name":"San Giorgio Pizzeria","longitude":"138.60777"},{"address":"Shop T002 The Myer Centre","latitude":"-34.9341985","name":"Gloria Jean's Coffees","longitude":"138.59869535"},{"address":"56 Gouger St","latitude":"-34.930224","name":"Zuma Caffe","longitude":"138.59715"},{"address":"Cnr Wakefield & Hutt Sts","latitude":"-34.928072","name":"Milano Cucina","longitude":"138.612113"},{"address":"33a Pirie St","latitude":"-34.92608","name":"BTS Cafe","longitude":"138.60113"},{"address":"70 Pirie St","latitude":"-34.92563","name":"Viva Espresso","longitude":"138.60224"},{"address":"441 Pulteney St","latitude":"-34.93413","name":"Scootz","longitude":"138.60615"},{"address":"Oaks Horizon Hotel 104 North Tce","latitude":"-34.92214","name":"Aroma Cafe","longitude":"138.59517"},{"address":"Shp1\/ 24 Waymouth St","latitude":"-34.92562","name":"Bistro Dom","longitude":"138.59859"},{"address":"33 Grenfell St","latitude":"-34.9247","name":"Daily Bread Roll & Sandwich Specialists","longitude":"138.60114"},{"address":"1st Floor 167 Gouger St","latitude":"-34.93075","name":"Matsuri Japanese Restaurant","longitude":"138.59291"},{"address":"132 Grenfell St","latitude":"-34.92385","name":"The Lunch Room","longitude":"138.60462"},{"address":"138 Gawler Pl","latitude":"-34.92609","name":"Eat Street Cafe","longitude":"138.60211"},{"address":"Shp 4\/ 118 King William St","latitude":"-34.92559","name":"New York Coffee Bar","longitude":"138.60009"},{"address":"Stall 39 & 40 Adelaide Central Market","latitude":"-34.923344","name":"Big Table","longitude":"138.603934"},{"address":"7 Compton St","latitude":"-34.93064","name":"Bliss Organic Garden Cafe","longitude":"138.59651"},{"address":"202 Hutt St","latitude":"-34.93248","name":"Alfonso's Continental","longitude":"138.61269"},{"address":"188 Hindley St West","latitude":"-34.92313","name":"Caos Cafe & Bar","longitude":"138.5924"},{"address":"76 Waymouth St","latitude":"-34.9257","name":"Funk Coffee","longitude":"138.59679"},{"address":"73 Grenfell St","latitude":"-34.92446","name":"Adelaide Coffee Bar","longitude":"138.60244"},{"address":"Shp1\/ 127 Rundle Mall","latitude":"-34.92305","name":"Gloria Jean's Coffees Rundle Mall","longitude":"138.60415"},{"address":"18 Union St","latitude":"-34.92316","name":"Chocolate Bean","longitude":"138.60862"},{"address":"Shp34a\/ 58 Gouger St","latitude":"-34.930228","name":"Bean Bar","longitude":"138.59707"},{"address":"Shp2\/ 20 Leigh St","latitude":"-34.923705","name":"Waffle & Coffee","longitude":"138.597922"},{"address":"Stall 17 14 Adelaide Arc","latitude":"-34.923673","name":"Ciao Coffee Bar","longitude":"138.603987"},{"address":"21 Pulteney St","latitude":"-34.92196","name":"Knoodle Junction","longitude":"138.6051"},{"address":"100 Wright St","latitude":"-34.931511","name":"Sniper Internet Cafe","longitude":"138.596437"},{"address":"119 Gouger St","latitude":"-34.930641","name":"East Taste Cafe","longitude":"138.59494"},{"address":"199 Hutt St","latitude":"-34.932131","name":"Cibo Espresso","longitude":"138.612003"},{"address":"112 Rundle Mall","latitude":"-34.928605","name":"Cibo Espresso","longitude":"138.601685"},{"address":"Lower Ground Floor, Adelaide Central 100 Rundle Mall","latitude":"-34.92215","name":"Coffee Club The","longitude":"138.603159"},{"address":"21 Sturt St","latitude":"-34.933242","name":"It's Simply Delicious","longitude":"138.599325"},{"address":"204 Rundle St","latitude":"-34.92236","name":"Cafe Michael","longitude":"138.60721"},{"address":"38- 41 Moonta St","latitude":"-34.93024","name":"Chinatown Cafe","longitude":"138.595907"},{"address":"83 Currie St","latitude":"-34.92483","name":"83 On Currie","longitude":"138.59644"},{"address":"211 Victoria Sq","latitude":"-34.92","name":"Argo on the Square","longitude":"138.59"},{"address":"Shop 4 211 Victoria Sq","latitude":"-34.92","name":"Ink Cafe","longitude":"138.59"},{"address":"22b Victoria Square Arc","latitude":"-34.929559","name":"Cafe Jenson 541","longitude":"138.598534"},{"address":"187 Rundle St","latitude":"-34.923021","name":"Brunelli","longitude":"138.606781"},{"address":"200 Hutt St","latitude":"-34.93212","name":"Biga Panificio Bar","longitude":"138.61271"},{"address":"9g Gays Arc","latitude":"-34.923089","name":"The Adelaide Symposium Cafe","longitude":"138.604274"},{"address":"63 Pirie St","latitude":"-34.92563","name":"Well Bred Sandwiches","longitude":"138.60229"},{"address":"279 Pulteney St","latitude":"-34.929536","name":"J-Hit Cafe","longitude":"138.605779"},{"address":"44 Gouger St","latitude":"-34.929523","name":"T Bar Adelaide Central Market","longitude":"138.597648"},{"address":"16 Victoria Square Arc","latitude":"-34.929534","name":"Wrest Point Snack Bar","longitude":"138.598658"},{"address":"83 Currie St","latitude":"-34.92483","name":"Dowies Brasserie","longitude":"138.59644"},{"address":"64 Hindley St","latitude":"-34.92246","name":"Flash Coffee Gelateria","longitude":"138.59732"},{"address":"187 Halifax St","latitude":"-34.93274","name":"Halifax Cafe","longitude":"138.60886"},{"address":"10 Pitt St","latitude":"-34.9277","name":"Pitt Stop Coffee Shop","longitude":"138.597184"},{"address":"Shp5\/ 60 West Tce","latitude":"-34.925981","name":"BB's Sweet Treats","longitude":"138.58812"},{"address":"Grote St","latitude":"-34.92","name":"Taldy-Kurgan","longitude":"138.59"},{"address":"75- 79 Halifax St","latitude":"-34.93305","name":"Aust Greek The","longitude":"138.60319"},{"address":"3 Angas St","latitude":"-34.92553","name":"QC On Angas","longitude":"138.62212"},{"address":"Myer Centre 22 Rundle Mall","latitude":"-34.922939","name":"Cafe Centrum","longitude":"138.60046"},{"address":"129 North Tce","latitude":"-34.922","name":"Strathmore Balcony Restaurant","longitude":"138.59695"},{"address":"99 Gawler Pl","latitude":"-34.9250282970517","name":"Piazza 99","longitude":"138.602020160858"},{"address":"Adelaide Arcade 112 Grenfell St","latitude":"-34.92413","name":"Tiffany's Lunch & Coffee Shop","longitude":"138.60379"},{"address":"1\/ 108 King William St","latitude":"-34.91724","name":"Fresh Fired","longitude":"138.62216"},{"address":"Southgate Building","latitude":"-34.93546","name":"Funk Coffee & Plus Food","longitude":"138.60006"},{"address":"104 Flinders St","latitude":"-34.926536","name":"BRILLANT RESTAURANT","longitude":"138.604495"},{"address":"The Learning Hub Adelaide University North Tce","latitude":"-34.9214037486854","name":"Grass Roots At Adelaide Pty Ltd","longitude":"138.601146483885"},{"address":"Shp1\/ 408 King William St","latitude":"-34.93458","name":"B AT King Cafe","longitude":"138.60078"},{"address":"393 King William St","latitude":"-34.934022","name":"Mustard Seed Caf√É","longitude":"138.600017"},{"address":"Shop 22 Myer Centre","latitude":"-34.922939","name":"Billy Baxter's Coffee House","longitude":"138.60046"},{"address":"ShpC\/ 187 Rundle St","latitude":"-34.92261","name":"Notcoffee","longitude":"138.60675"},{"address":"Shp17 North Tce","latitude":"-34.9214037486854","name":"Passion Fruit Dessert Bar","longitude":"138.601146483885"},{"address":"92 Gawler Pl","latitude":"-34.92477","name":"Red Spice Cafe","longitude":"138.60222"},{"address":"Level 4 Union Building University of Adelaide","latitude":"-34.919667","name":"Equinox Cafe","longitude":"138.602987"},{"address":"Shop 3\/ 28 James Pl","latitude":"-34.92383","name":"Rush Expresso Food","longitude":"138.60081"},{"address":"Central Mrkt","latitude":"-34.929808","name":"Lucia's Pizza Bar","longitude":"138.597104"},{"address":"2 Pirie St","latitude":"-34.925758","name":"New York Deli","longitude":"138.59985"},{"address":"42 Currie St","latitude":"-34.924196","name":"Coffee Branch","longitude":"138.597832"},{"address":"U 4\/ 228 Grote St","latitude":"-34.928809","name":"Rock N Roll Omelette","longitude":"138.590764"},{"address":"Shop 53 Central Market Plaza","latitude":"-34.929808","name":"Charlie's Place","longitude":"138.597104"},{"address":"Shop T56 Myer Centre Rundle Mall","latitude":"-34.922939","name":"Mocha Bar","longitude":"138.60046"},{"address":"Shop 3\/ 75 King William St","latitude":"-34.924158","name":"Bean Bar Currie Street","longitude":"138.59924"},{"address":"Shp2\/ 23 Grenfell St","latitude":"-34.92479","name":"Rainbow Cafe","longitude":"138.60078"},{"address":"85 Pirie St","latitude":"-34.92599","name":"Citrus Tree","longitude":"138.602884"},{"address":"27- 29 Ebenezer Pl","latitude":"-34.922494","name":"Belgian Beer Cafe Oostende","longitude":"138.609398"},{"address":"Grnd Flr\/ 38 Currie St","latitude":"-34.9242","name":"Saprito Espresso","longitude":"138.59805"},{"address":"Victoria Sq Shp 53\/ Gouger St","latitude":"-34.9304478299934","name":"Energize Cafe","longitude":"138.593531340678"},{"address":"60 Waymouth St","latitude":"-34.925682","name":"Bean Bar","longitude":"138.597319"},{"address":"Shop 33 Regent Arcade","latitude":"-34.9234701","name":"Billy Baxter's Coffee House","longitude":"138.6034667"},{"address":"Shop 8 Adelaide Railway Station North Terrace","latitude":"-34.922016","name":"Jaspers Cafe","longitude":"138.597284"},{"address":"97 Rundle Mall","latitude":"-34.92323","name":"Gloria Jean's Coffees","longitude":"138.60322"},{"address":"Shp 3a\/ 85 Moonta St","latitude":"-34.9292","name":"Bali Corner","longitude":"138.595976"},{"address":"264 Angas St","latitude":"-34.92938","name":"Lunch On Angas","longitude":"138.61059"},{"address":"Qbe","latitude":"-34.92541","name":"Starlight Lunch Bar","longitude":"138.60008"},{"address":"105 Gilbert St","latitude":"-34.93472","name":"First Serve Breakfast & Luncheon Bar","longitude":"138.59648"},{"address":"50 Pirie St","latitude":"-34.925667","name":"Taste On Pirie","longitude":"138.6016"},{"address":"281-283 Rundle St","latitude":"-34.922633","name":"Cocolate Dessert Cafe","longitude":"138.610028"},{"address":"Shop 17 LG 77 Rundle Mall","latitude":"-34.924074","name":"T Bar Rundle Place","longitude":"138.60259"},{"address":"Shp 1\/ 151 Pirie St","latitude":"-34.925844","name":"Bean Bar Handmarsh Square","longitude":"138.605461"},{"address":"Promenade Level The Myer Centre","latitude":"-34.922939","name":"Cafe 21","longitude":"138.60046"},{"address":"Shop 3 180 Gawler Pl","latitude":"-34.92773","name":"Lunch At Ritz","longitude":"138.60268"},{"address":"Unit 1, 22 Compton St","latitude":"-34.931131","name":"Kappy's Cafe","longitude":"138.596921"},{"address":"G","latitude":"-34.92869","name":"Flamingo's Coffee Lounge","longitude":"138.59778"},{"address":"281- 283 Rundle St","latitude":"-34.92263","name":"Adelaide Dessert Cafe","longitude":"138.61003"},{"address":"88 Gawler Pl","latitude":"-34.92464","name":"Salad Box","longitude":"138.60221"},{"address":"ANZ House 13 Grenfell St","latitude":"-34.924688","name":"Cafe Affair","longitude":"138.600912"},{"address":"Victoria Square, Shp 185\/ 181 Gouger St","latitude":"-34.930502","name":"One Ate Five","longitude":"138.59242"},{"address":"Station Arcade Shp 15b\/ 52 Hindley St","latitude":"-34.922715","name":"Modka Cafe","longitude":"138.597408"},{"address":"23 Ebenezer Pl","latitude":"-34.923312","name":"Nano","longitude":"138.609158"},{"address":"47b Morphett St","latitude":"-34.92367","name":"Cafe 47","longitude":"138.59315"},{"address":"196 Flinders St","latitude":"-34.92674","name":"Burgundy Snack Bar","longitude":"138.60792"},{"address":"Adelaide Arcade 112 Grenfell Street,","latitude":"-34.92413","name":"Tiffany's Cafe","longitude":"138.60379"},{"address":"146 Gawler Pl","latitude":"-34.9265","name":"Cafe 146","longitude":"138.60214"},{"address":"302a King William St","latitude":"-34.931286","name":"BARETTO Corte Caffe","longitude":"138.600231"},{"address":"150 North Tce","latitude":"-34.92204","name":"TG's Coffee Shop","longitude":"138.59848"},{"address":"397 King William St","latitude":"-34.9341","name":"Out Of The Blue Cafe","longitude":"138.6"},{"address":"Wakefield Hospital, 270 Wakefield St","latitude":"-34.927649","name":"Hudsons Coffee","longitude":"138.61067"},{"address":"18 Wyatt St","latitude":"-34.92517","name":"Sierra Snack Bar","longitude":"138.60382"},{"address":"65 King William St","latitude":"-34.91847","name":"Sushi Kingdom","longitude":"138.61909"},{"address":"70 Light Sq","latitude":"-34.92554","name":"Lime 2 Cafe","longitude":"138.59468"},{"address":"45 Grenfell St","latitude":"-34.92461","name":"Simply Divine","longitude":"138.60142"},{"address":"94 Carrington St","latitude":"-34.93112","name":"Carrington Street Snack Bar","longitude":"138.6036"},{"address":"Topham Mall, Sp 20, Currie St","latitude":"-34.92416","name":"Cafe Ela'te","longitude":"138.59869"},{"address":"60 West Tce","latitude":"-34.92598","name":"Das Cafe","longitude":"138.5881"},{"address":"61a Gouger St","latitude":"-34.9305","name":"Wish On Gouger","longitude":"138.597"},{"address":"99 Gawler Pl","latitude":"-34.924951","name":"Bean Bar","longitude":"138.601748"},{"address":"1 Victoria Square Arc","latitude":"-34.929511","name":"Ecco Espresso Bar","longitude":"138.598944"},{"address":"283 Rundle St","latitude":"-34.922633","name":"Coco Bean Pty Ltd","longitude":"138.610028"},{"address":"Shop 1\/2 41 Curry Street, Topham Mall, Adelaide SA 5000","latitude":"-34.928605","name":"The Spot Expresso","longitude":"138.601685"},{"address":"53 Flinders St","latitude":"-34.927284","name":"Kappy's Cafe","longitude":"138.602537"},{"address":"25 O'Connel St","latitude":"-34.908423","name":"Chocolatree","longitude":"138.596415"},{"address":"81 O'Connell St","latitude":"-34.907058","name":"Outback Jacks Bar & Grill","longitude":"138.595283"},{"address":"96 Glen Osmond Rd","latitude":"-34.944356","name":"Bar 9 Pty Ltd","longitude":"138.621663"},{"address":"39 Gladstone Rd","latitude":"-34.92636","name":"Love On Cafe & Deli","longitude":"138.57449"},{"address":"Shop 7 47 The Pde","latitude":"-34.92073","name":"Cafe Saba","longitude":"138.628412"},{"address":"33 Richmond Rd","latitude":"-34.941828","name":"Funk Coffee   Food","longitude":"138.576926"},{"address":"180 O'Connell St","latitude":"-34.903425","name":"Cafe Palazzo North Adelaide","longitude":"138.595328"},{"address":"Shp 7\/ 116 Melbourne St","latitude":"-34.906953","name":"E For Ethel","longitude":"138.607031"},{"address":"119 Melbourne St","latitude":"-34.907392","name":"UR Caffe","longitude":"138.607595"},{"address":"133 Melbourne St","latitude":"-34.90746","name":"Cikolatte","longitude":"138.60695"},{"address":"78 Melbourne St","latitude":"-34.906125","name":"Bliss Pizzeria","longitude":"138.608269"},{"address":"21 O'Connell St","latitude":"-34.908481","name":"Cucina North Adelaide","longitude":"138.596301"},{"address":"70 King William St","latitude":"-34.91886","name":"Cafe La Corp","longitude":"138.61967"},{"address":"41a O'Connell St","latitude":"-34.908092","name":"Caffe Vagabondo","longitude":"138.596106"},{"address":"27 King William Rd","latitude":"-34.94381","name":"Ivia Espresso","longitude":"138.5998"},{"address":"102 O'Connell St","latitude":"-34.905675","name":"Cafe Fellini","longitude":"138.596217"},{"address":"54a George St","latitude":"-34.91858","name":"The Deli","longitude":"138.57488"},{"address":"80 Henley Beach Rd","latitude":"-34.92329","name":"Hungry Tums","longitude":"138.57353"},{"address":"56 Glen Osmond Rd","latitude":"-34.94263","name":"Cafe Sabatini","longitude":"138.61856"},{"address":"Memorial Hospital Sir Edwin Smith Ave","latitude":"-34.91306","name":"Hudsons Coffee","longitude":"138.600358"},{"address":"Melbourne St","latitude":"-34.907688","name":"The Store","longitude":"138.606724"},{"address":"105 Unley Rd","latitude":"-34.947834","name":"A Mothers Milk","longitude":"138.60774"},{"address":"39a Rundle St","latitude":"-34.92051","name":"Giallo Wine Bar","longitude":"138.61764"},{"address":"41 Rundle St","latitude":"-34.92042","name":"The Lunch Bag","longitude":"138.61781"},{"address":"9 Goodwood Rd","latitude":"-34.94286","name":"Lunch On Nine","longitude":"138.5893"},{"address":"53 Tynte St","latitude":"-34.90558","name":"Caffeteca","longitude":"138.59837"},{"address":"70 Henley Beach Rd","latitude":"-34.923154","name":"Lunch At Tatiana's","longitude":"138.573808"},{"address":"33 Chapel St","latitude":"-34.916348","name":"Expresso Classico","longitude":"138.625289"},{"address":"23 Swift Ave","latitude":"-34.935849","name":"Corner Store Cafe","longitude":"138.62708"},{"address":"30 Phillips St","latitude":"-34.91347","name":"Grainhouse Bakery\/Cafe","longitude":"138.57428"},{"address":"Calvary North Adelaide Hospital, 89 Strangways Tce","latitude":"-34.909828","name":"Hudsons Coffee","longitude":"138.588666"},{"address":"254-266 Unley Rd","latitude":"-34.95","name":"Boutiique Cafe","longitude":"138.6"},{"address":"War Memorial Drv","latitude":"-34.911132","name":"River Torrens Cafe","longitude":"138.60649"},{"address":"Shop 31\/ 81 O'Connell St","latitude":"-34.907058","name":"Blanc Bistro And Grill","longitude":"138.595283"},{"address":"39 Gladstone Rd","latitude":"-34.92636","name":"Terrace Deli & Snack Bar","longitude":"138.57449"},{"address":"37c Dulwich Ave","latitude":"-34.9349","name":"Gillberries Cafe","longitude":"138.6279"},{"address":"139 Unley Rd","latitude":"-34.948931","name":"Rosey's Cafe","longitude":"138.607692"},{"address":"The Square , 2 Wellington Sq","latitude":"-34.90836","name":"EU Espresso","longitude":"138.5923"},{"address":"31 Palmerston Rd","latitude":"-34.943611","name":"Berni Gloria","longitude":"138.604351"},{"address":"29 Prescott Tce","latitude":"-34.93","name":"Llewellyns International Pty Ltd","longitude":"138.63"},{"address":"Shp 10\/ 170 Unley Rd","latitude":"-34.94967","name":"B B Q Cafe","longitude":"138.60688"},{"address":"99 Melbourne St","latitude":"-34.906987","name":"Cafe 99 The Food","longitude":"138.607981"},{"address":"52 Alexandra Ave","latitude":"-34.93","name":"The Spare Room OLK","longitude":"138.62"},{"address":"40 Sir Donald Bradman Drv","latitude":"-34.931147","name":"Cafe Fino","longitude":"138.571917"},{"address":"77 Unley Rd","latitude":"-34.945879","name":"Brasserie On Unley","longitude":"138.607465"},{"address":"U14\/ 152 Melbourne St","latitude":"-34.907464","name":"Monna Cafe Pty Ltd","longitude":"138.60618"},{"address":"66 Rundle St","latitude":"-34.92034","name":"Centrale Espresso Bar","longitude":"138.61937"},{"address":"20b-20c William St","latitude":"-34.92474","name":"The Lunchshed","longitude":"138.62541"},{"address":"72 Glen Osmond Rd","latitude":"-34.943344","name":"Arlecchino's Gourmet Cafe","longitude":"138.619803"},{"address":"81 O'Connell St","latitude":"-34.907058","name":"Un Caffe North Adelaide","longitude":"138.595283"},{"address":"113 King William Rd","latitude":"-34.95078","name":"Vaniety Fair","longitude":"138.59978"},{"address":"The Square 2 Wellington Sq","latitude":"-34.90836","name":"Eu Espresso","longitude":"138.5923"},{"address":"99 Melbourne St","latitude":"-34.906719","name":"The Vines Cafe","longitude":"138.60793"},{"address":"13 Unley Rd","latitude":"-34.94261","name":"Small Talk Cafe","longitude":"138.60723"},{"address":"Shop 8, North Adelaide Village S\/Ctr 81 O'Connell St","latitude":"-34.907058","name":"Zoom Espresso","longitude":"138.595283"},{"address":"168 Melbourne St","latitude":"-34.9076","name":"Upper Crust Cafe The","longitude":"138.60518"},{"address":"139 Unley Rd","latitude":"-34.948931","name":"Abrieaux Cafe","longitude":"138.607692"},{"address":"179 O'Connell St","latitude":"-34.903536","name":"Pellegrinni Cafe & Pizzaria","longitude":"138.594606"},{"address":"George St","latitude":"-34.92","name":"Billy Baxter's Coffee House","longitude":"138.63"},{"address":"101- 103 Prospect Rd","latitude":"-34.88634","name":"Caffe Cena","longitude":"138.59432"},{"address":"140 The Parade","latitude":"-34.92158","name":"Cafe' Bravo","longitude":"138.63409"},{"address":"45c Sussex Tce","latitude":"-34.973893","name":"Astros","longitude":"138.600067"},{"address":"548 Portrush Rd","latitude":"-34.956584","name":"Cafe Sani Food For Wellbeing","longitude":"138.644561"},{"address":"103 Fisher St","latitude":"-34.95822","name":"Book@Cino's Cafe","longitude":"138.619488"},{"address":"184 Payneham Rd","latitude":"-34.90508","name":"Hazl Cafe","longitude":"138.63164"},{"address":"4\/ 8 Marker St","latitude":"-34.9435","name":"Mrs D's Cookies","longitude":"138.56392"},{"address":"50 West Thebarton Rd","latitude":"-34.914235","name":"O'Furno Pane Di Casa & Espresso Bar","longitude":"138.567078"},{"address":"170 Henley Beach Rd","latitude":"-34.923745","name":"O'Furno Pane Di Casa & Espresso Bar","longitude":"138.562138"},{"address":"48 West Thebarton Rd","latitude":"-34.914209","name":"O'Furno Pane Di Casa & Espresso Bar","longitude":"138.567225"},{"address":"T21\/ Parade Central St","latitude":"-34.921325","name":"O'Furno Pane Di Casa & Espresso Bar","longitude":"138.631504"},{"address":"88 Duthy St","latitude":"-34.962517","name":"Nature's Providore","longitude":"138.614921"},{"address":"68 Dulwich Ave","latitude":"-34.93517","name":"G.G.'S Continental Coffee Bar","longitude":"138.63145"},{"address":"48 Everard Ave","latitude":"-34.94587","name":"Sylvia's Deli Snack Bar","longitude":"138.57591"},{"address":"Shop 3 462 Port Rd","latitude":"-34.89","name":"Just GF Cafe","longitude":"138.56"},{"address":"194 The Pde","latitude":"-34.9214","name":"Manto Cafe","longitude":"138.63638"},{"address":"Shop 1, 181- 183 Grange Rd","latitude":"-34.90444","name":"Liquid Espresso","longitude":"138.54688"},{"address":"185 The Parade","latitude":"-34.92028","name":"Caffe Primo","longitude":"138.63701"},{"address":"Northpark Shopng Cntr Shp19\/ 264 Main North Rd","latitude":"-34.87527","name":"Cafe 19","longitude":"138.60137"},{"address":"162 Goodwood Rd","latitude":"-34.95314","name":"Eggless","longitude":"138.58938"},{"address":"274 Unley Rd","latitude":"-34.95525","name":"Just Tickled Pink","longitude":"138.6075"},{"address":"447 Portrush Rd","latitude":"-34.941417","name":"Cibo Espresso","longitude":"138.641803"},{"address":"172 Henley Beach Rd","latitude":"-34.92381","name":"Minos Cafe Bistro","longitude":"138.56191"},{"address":"230 The Pde","latitude":"-34.921319","name":"Cafe Ivy Pty Ltd","longitude":"138.638454"},{"address":"123 Goodwood Rd","latitude":"-34.951852","name":"The Indalo Cafe","longitude":"138.589964"},{"address":"143 Goodwood Rd","latitude":"-34.95307","name":"Brown Dog Cafe","longitude":"138.59013"},{"address":"Shp4\/ 242 Kensington Rd","latitude":"-34.92679","name":"Kava Cafe","longitude":"138.65047"},{"address":"Shop 40\/ 119 Belair Rd","latitude":"-34.97584","name":"Dolci Cafe","longitude":"138.61064"},{"address":"116a King William Rd","latitude":"-34.95299","name":"Lars","longitude":"138.5996"},{"address":"Welland Plz Shopng Cntr Shp11\/ 522 Port Rd","latitude":"-34.895555","name":"Welland Plaza Cafe","longitude":"138.556979"},{"address":"137 Magill Rd","latitude":"-34.914927","name":"My Friend Louis","longitude":"138.632393"},{"address":"Shp A\/ 61a Edward St","latitude":"-34.92184","name":"Marmalade Breakfast, Juice & Lunch","longitude":"138.63419"},{"address":"114 Payneham Rd","latitude":"-34.908829","name":"Avenue's Cafe","longitude":"138.628599"},{"address":"Shop 14 Norwood Mall The Parade","latitude":"-34.9221","name":"Gloria Jean's Coffees","longitude":"138.63579"},{"address":"Mitcham Shopping Centre Shp 61\/ Belair Rd","latitude":"-34.97584","name":"Mooi Expresso","longitude":"138.61064"},{"address":"Shp 1\/ 160 Sir Donald Bradman Drv","latitude":"-34.93162","name":"Cafe Hilton","longitude":"138.56184"},{"address":"212 The Parade","latitude":"-34.921352","name":"Argo On The Parade","longitude":"138.637828"},{"address":"123 King William Rd","latitude":"-34.95114","name":"Jones The Grocer","longitude":"138.60009"},{"address":"264 Main North Rd","latitude":"-34.87527","name":"Caffe Primo","longitude":"138.60137"},{"address":"Shp53\/ 119 Belair Rd","latitude":"-34.97584","name":"Creco Crepe Connection","longitude":"138.61064"},{"address":"Shop3\/ 350 Goodwood Rd","latitude":"-34.966645","name":"Welsh Cafe","longitude":"138.590442"},{"address":"309 Payneham Rd","latitude":"-34.89954","name":"Cafe Allegria","longitude":"138.63579"},{"address":"Richmond Village Shop 2\/ 200 Richmond Rd","latitude":"-34.94284","name":"Flava Lunchbar On Richmond","longitude":"138.56282"},{"address":"Shp 2\/ 356 Payneham Rd","latitude":"-34.89619","name":"2 Delicious","longitude":"138.6407"},{"address":"2 Egmont Tce","latitude":"-34.968984","name":"The Pantry on Egmont","longitude":"138.599715"},{"address":"108 King William Rd","latitude":"-34.9525","name":"Spats Coffee Lounge","longitude":"138.59991"},{"address":"5 Stuart Rd","latitude":"-34.93522","name":"Millies Bakery Cafe","longitude":"138.63145"},{"address":"116a Prospect Rd","latitude":"-34.88706","name":"Cafe Di Roma","longitude":"138.59367"},{"address":"91 Glen Osmond Rd","latitude":"-34.94458","name":"Bar 9 Pty Ltd","longitude":"138.62227"},{"address":"The Mall","latitude":"-34.921729","name":"Uncle Albert's","longitude":"138.634822"},{"address":"Shop 9\/ 291 Unley Rd","latitude":"-34.95929","name":"Black Wattle Cafe","longitude":"138.60859"},{"address":"219 Main North Rd","latitude":"-34.878157","name":"The Coffee Barun","longitude":"138.602653"},{"address":"355 Magill Rd","latitude":"-34.914015","name":"Espresso Royale","longitude":"138.650435"},{"address":"3\/ 124 Prospect Rd","latitude":"-34.886516","name":"Cibo Espresso","longitude":"138.593626"},{"address":"1\/ 156 King William Rd","latitude":"-34.954435","name":"Cibo Espresso","longitude":"138.599743"},{"address":"224 The Parade","latitude":"-34.92133","name":"American Candy Stand Cupcake Cafe","longitude":"138.63831"},{"address":"140 Main North Rd","latitude":"-34.88703","name":"Snack Bite","longitude":"138.60265"},{"address":"96 Prospect Rd","latitude":"-34.88852","name":"Number 96 Snack Bar","longitude":"138.59377"},{"address":"522 Port Rd","latitude":"-34.895555","name":"Caffe Primo","longitude":"138.556979"},{"address":"309 Fullarton Rd","latitude":"-34.95018","name":"Camellia Tea Room","longitude":"138.62536"},{"address":"263 Kensington Rd","latitude":"-34.926177","name":"Jbar","longitude":"138.650974"},{"address":"112 The Parade","latitude":"-34.921325","name":"Enjoy Cafe Bakery On Parade","longitude":"138.631504"},{"address":"Shp 5\/ 449 Port Rd","latitude":"-34.8984","name":"Feel Good Cafe","longitude":"138.56284"},{"address":"212 Belair Rd South","latitude":"-34.974975","name":"Dolci","longitude":"138.608797"},{"address":"269 Kensington Rd","latitude":"-34.925931","name":"Bracegirdle's House of Fine Chocolate","longitude":"138.65147"},{"address":"12 Elizabeth St","latitude":"-34.89","name":"Cafe Terra Rosa","longitude":"138.56"},{"address":"150 King William Rd","latitude":"-34.954226","name":"Stumps Bar & Kitchen","longitude":"138.599654"},{"address":"4 Aroha Tce","latitude":"-34.95436","name":"Kylies Gluten Free Bakery, Speciality Cakes & Cafe","longitude":"138.58128"},{"address":"40-46 West Thebarton Rd","latitude":"-34.912726","name":"Incubar Cafe","longitude":"138.567464"},{"address":"Unit 5\/ 69 Sir Donald Bradman Drv","latitude":"-34.93232","name":"Pronto Expresso","longitude":"138.56979"},{"address":"Shop 5 Burnside Village","latitude":"-34.940373","name":"Jardine's On The Square","longitude":"138.641601"},{"address":"Shp 57\/ 264 Main North Rd","latitude":"-34.875633","name":"L & F International Pty Ltd","longitude":"138.599841"},{"address":"176 The Parade","latitude":"-34.92158","name":"Eko Cafe","longitude":"138.63575"},{"address":"144 Henley Beach Rd","latitude":"-34.923465","name":"Red Rocket Cafe","longitude":"138.56525"},{"address":"94 Frederick St","latitude":"-34.905186","name":"Caffe Da Mitolo","longitude":"138.55738"},{"address":"109a Goodwood Rd","latitude":"-34.951182","name":"Ginger's Coffee Studio","longitude":"138.58966"},{"address":"26 Stirling St","latitude":"-34.911352","name":"Einsteins Cafe","longitude":"138.572824"},{"address":"52a Galway Ave","latitude":"-34.94904","name":"Galway Snack Bar Cafe","longitude":"138.56188"},{"address":"1\/ 103 Fisher St","latitude":"-34.95822","name":"Book@Cino's Cafe","longitude":"138.619488"},{"address":"89 The Parade","latitude":"-34.92101","name":"Mamma Carmela Cafe Pizzeria","longitude":"138.63155"},{"address":"211a The Pde","latitude":"-34.92077","name":"Mondo Food Wine Coffee","longitude":"138.63855"},{"address":"Shp19\/ 231 Main North Rd","latitude":"-34.876666","name":"Skylights Cafe","longitude":"138.602333"},{"address":"Shp5\/ 81 Magill Rd","latitude":"-34.91497","name":"Stepney Cafe","longitude":"138.62954"},{"address":"Shp4\/ 100 King William Rd","latitude":"-34.952263","name":"CK & Blackbird Pty Ltd","longitude":"138.599565"},{"address":"135 Burbridge Rd","latitude":"-34.93243","name":"Esperos Coffee Lounge","longitude":"138.56479"},{"address":"Shp 3\/ 453 Fullarton Rd","latitude":"-34.9604","name":"Eidos Cafe & Restaurant","longitude":"138.62567"},{"address":"401 Greenhill Rd","latitude":"-34.93843","name":"Adelina's Cafe","longitude":"138.64317"},{"address":"2 West Thebarton Rd","latitude":"-34.913442","name":"Cafe Ricca","longitude":"138.572291"},{"address":"408 Unley Rd","latitude":"-34.96432","name":"Sabrina's Lunch Bar","longitude":"138.60817"},{"address":"Shp3\/ 248 Unley Rd","latitude":"-34.95351","name":"Our Expresso On Unley Rd","longitude":"138.60735"},{"address":"Shp1\/ 97 Belair Rd","latitude":"-34.97437","name":"Cafe Symphony","longitude":"138.60955"},{"address":"Shp4\/ 457 Glynburn Rd","latitude":"-34.93277","name":"Cafe 457","longitude":"138.6593"},{"address":"206a Grange Rd","latitude":"-34.90511","name":"The Perfect Cup","longitude":"138.54467"},{"address":"Shp61\/ 447 Portrush Rd","latitude":"-34.94142","name":"T Bar Tea Salon","longitude":"138.6418"},{"address":"66 Pym St","latitude":"-34.88159","name":"Pym Street Cafe","longitude":"138.57798"},{"address":"106 Glen Osmond Rd","latitude":"-34.944836","name":"2Cuzcafe","longitude":"138.621932"},{"address":"163 Grange Rd","latitude":"-34.904257","name":"Perfect Cup Caffe","longitude":"138.548743"},{"address":"324 Magill Rd","latitude":"-34.914531","name":"360 Gradi","longitude":"138.651176"},{"address":"12 Elizabeth St","latitude":"-34.896814","name":"Queen Street Cafe The","longitude":"138.565149"},{"address":"91 Devereux Rd","latitude":"-34.947332","name":"Didier Licensed Cafe & Patisserie","longitude":"138.651684"},{"address":"Shop 18\/ 204 Unley Rd","latitude":"-34.951065","name":"The Lunch Club Cafe Bistro","longitude":"138.607425"},{"address":"95a Connell St","latitude":"-34.9","name":"Bagelicious","longitude":"138.59"},{"address":"Shp14\/ 114 Payneham Rd","latitude":"-34.910232","name":"Buddy's Cafe","longitude":"138.629163"},{"address":"Shop 8, 636 Lower North East Rd","latitude":"-34.87712","name":"Cafe Va Bene","longitude":"138.66479"},{"address":"18 Elizabeth St","latitude":"-34.88","name":"Let them eat","longitude":"138.57"},{"address":"530 Goodwood Rd","latitude":"-34.979334","name":"Place to Meet Cafe The","longitude":"138.591274"},{"address":"Shop 1\/ 30 Glynburn Rd","latitude":"-34.891344","name":"Gourmet Kones","longitude":"138.657035"},{"address":"Adelaide Airport Leve 00\/ Shop 1 T1 Andy Thomas Cct","latitude":"-34.9376176246919","name":"Hudsons Coffee","longitude":"138.537966783512"},{"address":"ShpT17\/ 727 Tapleys Hill Rd","latitude":"-34.946954","name":"Runway Cafe","longitude":"138.520108"},{"address":"480 Torrens Rd","latitude":"-34.87447","name":"Billy Baxter Arndale","longitude":"138.54779"},{"address":"14 The Strnd","latitude":"-34.98599","name":"The Stranded Store","longitude":"138.595047"},{"address":"Shp1\/ 930 South Rd","latitude":"-34.975694","name":"Metro Mocha Coffee","longitude":"138.573205"},{"address":"Shop 3 524 Anzac Hwy","latitude":"-34.97","name":"Eve?s Organics","longitude":"138.53"},{"address":"68b Woodville Rd","latitude":"-34.87919","name":"Cotto Patisserie Espresso Bar","longitude":"138.53713"},{"address":"Shp 8\/ 257 North East Rd","latitude":"-34.87508","name":"Gardens Cafe","longitude":"138.6315"},{"address":"Shop 41 Mitcham Shopping Centre","latitude":"-34.97725","name":"Billy Baxter's Coffee House","longitude":"138.60865"},{"address":"295 Anzac Hwy","latitude":"-34.96452","name":"Caffe Primo","longitude":"138.55323"},{"address":"540 Glynburn Rd","latitude":"-34.94001","name":"Suzette gourmet caf√©","longitude":"138.66051"},{"address":"38 Sheoak Rd","latitude":"-34.99733","name":"Sheoak Cafe","longitude":"138.6302"},{"address":"Castle Plaza Shopping Centre 1092 South Rd","latitude":"-34.98149","name":"bb's cafe","longitude":"138.57283"},{"address":"Shop5\/ 56-58 Daws Rd","latitude":"-34.992726","name":"Golden Bite Cafe","longitude":"138.569253"},{"address":"303 Grange Rd","latitude":"-34.905","name":"Cafe Le Creme","longitude":"138.53125"},{"address":"54 Winston Ave","latitude":"-34.97611","name":"Winston Lunch Bar Cafe","longitude":"138.58249"},{"address":"Firle Plaza Centre 151-161 Glynburn Rd","latitude":"-34.90276","name":"Caffe Primo","longitude":"138.6571"},{"address":"Shop 1, Northgate Village, Cnr Fosters & Folland Ave,","latitude":"-34.857837","name":"Veloce Paninoteca","longitude":"138.63611"},{"address":"Shop T52\/52 Harbour Town 727 Tapleys Hill Rd","latitude":"-34.946678","name":"Coffee Club The","longitude":"138.519536"},{"address":"Adelaide Airport, Level 02, Shop 29, T1 Andy Thomas Circuit","latitude":"-34.940741","name":"Hudsons Coffee","longitude":"138.534069"},{"address":"518 Goodwood Rd","latitude":"-34.97817","name":"Master Of Bread The","longitude":"138.59136"},{"address":"332 Findon Rd","latitude":"-34.90837","name":"Findon Coffee Bar","longitude":"138.53316"},{"address":"2 Burchett Ave","latitude":"-34.914608","name":"Via Espresso Pty Ltd","longitude":"138.680725"},{"address":"1069 South Rd","latitude":"-34.98871","name":"Green Bean Cafe","longitude":"138.57527"},{"address":"Shp1\/ 30 Glynburn Rd","latitude":"-34.891344","name":"Argentenian Delight","longitude":"138.657035"}]